[
{"guid":"3060eacb961d","title":"Randonnée en raquettes dans les Pyrénées","latlng":"42.560226, 2.002017","youtubeId":"T1U_nlVwyYY","publishedAt":"2017-02-15T10:57:33.000Z"},
{"guid":"da0e364c71a6","title":"Carcassonne, une vie de cité","latlng":"43.206326, 2.364143","youtubeId":"RUxatYpCOgM","publishedAt":"2017-02-15T10:37:28.000Z"},
{"guid":"7601e8fe5220","title":"A Saint-Papoul, les jeunes revendiquent leur patrimoine","latlng":"43.330583, 2.034131","youtubeId":"IYsJFXBV-kA","publishedAt":"2017-02-14T11:16:12.000Z"},
{"guid":"f8355e932bfd","title":"Castelnaudary, terre de légionnaires","latlng":"43.299067, 1.981911","youtubeId":"ZJvXlhhPaB0","publishedAt":"2017-02-14T10:41:31.000Z"},
{"guid":"50cbb97cb986","title":"Balade dans quelques endroits merveilleux de Dunkerque","latlng":"51.048875, 2.364428","youtubeId":"n0vtTP7LcXU","publishedAt":"2017-02-10T10:45:51.000Z"},
{"guid":"15726093d2b5","title":"A Lens, la cité du 9 continue d'écrire son histoire","latlng":"50.431375, 2.804606","youtubeId":"UxlKh4GCKSM","publishedAt":"2017-02-08T11:21:16.000Z"},
{"guid":"feecc595a48c","title":"La Chartreuse de Neuville : le réveil d'une belle endormie","latlng":"50.471617, 1.789566","youtubeId":"8_jRGPFCS_M","publishedAt":"2017-02-08T11:51:52.000Z"},
{"guid":"d94995f60bbf","title":"Bergues, la plus ch'ti des villes flamandes","latlng":"50.968648, 2.430781","youtubeId":"8hki1YWecuI","publishedAt":"2017-02-07T10:52:39.000Z"},
{"guid":"a007de7131b1","title":"Chambres d'hôtes : un château où jeter son ancre","latlng":"50.746106, 1.647249","youtubeId":"erxJtJrBdUQ","publishedAt":"2017-02-07T11:07:42.000Z"},
{"guid":"809a3afb284d","title":"A Roubaix, le passé industriel tisse son histoire","latlng":"50.682992, 3.196204","youtubeId":"xf1MhwS4fts","publishedAt":"2017-02-06T10:16:53.000Z"},
{"guid":"cb7a361107a9","title":"La chicorée, l'or vert du Nord","latlng":"50.472720, 3.243460","youtubeId":"1yobMRAmwTU","publishedAt":"2017-02-06T10:47:20.000Z"},
{"guid":"f8e1eb201230","title":"Le Nord, une terre d'insolites","latlng":"50.555802, 3.053458","youtubeId":"Q4xaeHtsxSA","publishedAt":"2017-02-03T11:07:15.000Z"},
{"guid":"59d9ee44ed97","title":"Dans le Nord, ces frères sont des virtuoses","latlng":"50.642243, 3.062275","youtubeId":"JpjkMvbu5C4","publishedAt":"2017-02-03T11:31:12.000Z"},
{"guid":"480143cf6898","title":"Balade entre Scarpe et Escaut","latlng":"50.453228, 3.589032","youtubeId":"Zzwz952AVWU","publishedAt":"2017-02-02T11:08:52.000Z"},
{"guid":"a72250ed1f87","title":"A Zuydcoote, des épaves pour mémoire de l'opération Dynamo","latlng":"51.071413, 2.485048","youtubeId":"0TF0IAFFUCg","publishedAt":"2017-02-02T10:50:27.000Z"},
{"guid":"842d349281f1","title":"Dunkerque, le port d'attache d'un marin","latlng":"51.018767, 2.185481","youtubeId":"J1Au506KiRM","publishedAt":"2017-02-01T11:19:50.000Z"},
{"guid":"d8be3479a761","title":"A Lille, l'ancien hospice est un hôtel de luxe","latlng":"50.631157, 3.068212","youtubeId":"kKVfd1E80Fc","publishedAt":"2017-02-01T11:41:39.000Z"},
{"guid":"39ccf6493d38","title":"Un manoir flamand retrouve ses lettres de noblesse","latlng":"50.687209, 2.551935","youtubeId":"uwwvzd3kUEQ","publishedAt":"2017-01-31T11:26:39.000Z"},
{"guid":"6c017e549f20","title":"Dunkerque, une ville d'architecture","latlng":"51.037667, 2.392287","youtubeId":"7-GzT5Y9ZZQ","publishedAt":"2017-01-31T11:07:04.000Z"},
{"guid":"18d45b62504b","title":"Dunkerque : une plage d'histoire sur grand écran","latlng":"51.066946, 2.467106","youtubeId":"1OC0iTYvGC0","publishedAt":"2017-01-30T10:50:07.000Z"},
{"guid":"824085520190","title":"Le Mupop : le Musée des Musiques Populaires de Montluçon","latlng":"46.340947, 2.605474","youtubeId":"T3VbmHrjM5s","publishedAt":"2017-01-27T10:36:07.000Z"},
{"guid":"0c6e3fb32e64","title":"Le Puy-de-dôme : une terre de volcans","latlng":"45.694192, 2.950909","youtubeId":"RatYGfutZRQ","publishedAt":"2017-01-27T11:06:31.000Z"},
{"guid":"e0605edee6ff","title":"Les traboules du quartier Saint-Jean de Lyon","latlng":"45.760337, 4.826510","youtubeId":"ffrN6dy2K4Q","publishedAt":"2017-01-26T11:27:57.000Z"},
{"guid":"3b40ee7da6a9","title":"En Haute-Loire, les rangers sont à la tâche","latlng":"45.203910, 4.032892","youtubeId":"sopuvX7SWqM","publishedAt":"2017-01-26T11:43:00.000Z"},
{"guid":"f9f68308dccb","title":"Le Cantal vu du ciel","latlng":"44.899753, 2.420656","youtubeId":"IY0je5gDQ-o","publishedAt":"2017-01-25T11:03:14.000Z"},
{"guid":"967e41bf1fee","title":"Le château de Sédaiges : 800 ans d'histoire auvergnate","latlng":"45.001718, 2.483385","youtubeId":"VVttsQNiRLM","publishedAt":"2017-01-25T11:27:22.000Z"},
{"guid":"981b4582b058","title":"Firminy : un style de vie imaginé par Le Corbusier","latlng":"45.383634, 4.286277","youtubeId":"7mgeMZC_SpA","publishedAt":"2017-01-24T11:21:16.000Z"},
{"guid":"764161133061","title":"Dans le Cantal, les randonneurs craquent pour les burons","latlng":"45.037752, 2.726024","youtubeId":"KlOXXGqWZbI","publishedAt":"2017-01-24T11:20:16.000Z"},
{"guid":"cb9f4ef82481","title":"Le Puy-en-Vélay : village départ de Saint-Jacques de Compostelle","latlng":"45.045575, 3.884780","youtubeId":"ws_ZlElxsK8","publishedAt":"2017-01-23T12:03:40.000Z"},
{"guid":"940042c8c0a6","title":"Au fil de la Loire : entre canyons et cascades","latlng":"44.817701, 4.070049","youtubeId":"0eaJx2bmWcI","publishedAt":"2017-01-23T12:02:47.000Z"},
{"guid":"32db5cdad615","title":"Montarcher : la plus haute commune de la Loire","latlng":"45.458690, 3.995794","youtubeId":"hhzSjfAIBy4","publishedAt":"2017-01-20T15:09:48.000Z"},
{"guid":"1e25ccc2b394","title":"Le château d'Origny : une restauration à taille humaine","latlng":"46.023213, 4.017097","youtubeId":"kX6vkQ9STLg","publishedAt":"2017-01-20T15:08:22.000Z"},
{"guid":"cf5a620263c8","title":"Saint-Etienne : une ville meublée par son passé industriel","latlng":"45.419339, 4.393215","youtubeId":"QYmRfcE8lg0","publishedAt":"2017-01-19T11:43:31.000Z"},
{"guid":"3d24a3084414","title":"Saint-Jean-Saint-Maurice-Sur-Loire : un balcon sur l'eau","latlng":"45.964574, 4.011509","youtubeId":"9JLaUYybBsQ","publishedAt":"2017-01-19T11:42:38.000Z"},
{"guid":"fbc3f9f96727","title":"La gare de Saint-Etienne : un terminus musical","latlng":"45.437020, 4.378463","youtubeId":"tZ1X7U68mvo","publishedAt":"2017-01-18T14:42:14.000Z"},
{"guid":"781964fadb52","title":"Dans les coulisses d'un artisan chocolatier ligérien","latlng":"45.436180, 4.389334","youtubeId":"oUUb4Ch5kQU","publishedAt":"2017-01-18T14:40:39.000Z"},
{"guid":"fb9f880613b5","title":"La cité du design : un lieu emblématique","latlng":"45.450380, 4.384920","youtubeId":"hcB68etTfg0","publishedAt":"2017-01-16T13:51:13.000Z"},
{"guid":"acc58514a874","title":"L'abbaye de Charlieu : la Loire moyenâgeuse","latlng":"46.157841, 4.168249","youtubeId":"I8GopzUCg_I","publishedAt":"2017-01-16T13:50:38.000Z"},
{"guid":"8ccd675abd75","title":"L'abbaye de Royaumont : un havre de paix pour les artistes","latlng":"49.147442, 2.381864","youtubeId":"nue_tGypEwM","publishedAt":"2017-01-12T14:57:47.000Z"},
{"guid":"3ef424156e2a","title":"A Saint-Rémy-lès-Chevreuse, Raymond Devos a son musée","latlng":"48.706282, 2.075893","youtubeId":"9Fhe3MIN_4o","publishedAt":"2017-01-12T14:56:54.000Z"},
{"guid":"f80e4b3f64c4","title":"Chambres d'hôtes : Escale chez deux pilotes","latlng":"49.130214, 2.354015","youtubeId":"fERRVHUXko0","publishedAt":"2017-01-11T11:25:59.000Z"},
{"guid":"46eeac711211","title":"Le potager de Versailles : fournisseur des grandes tables","latlng":"48.798523, 2.123093","youtubeId":"LyozCsdO6AE","publishedAt":"2017-01-10T11:10:30.000Z"},
{"guid":"98bfe10a9851","title":"Le château fort de Blandy-les-Tours : une véritable histoire de famille","latlng":"48.567284, 2.781355","youtubeId":"PD2WTv53emg","publishedAt":"2017-01-10T11:09:48.000Z"},
{"guid":"d6b776899ff0","title":"Chomo, le Dali de la forêt de Fontainebleau","latlng":"48.413326, 2.644504","youtubeId":"whCoA8HHQ5k","publishedAt":"2017-01-09T11:34:17.000Z"},
{"guid":"79bce2c8436d","title":"Logements pour jeunes : partir au vert pour se loger moins cher","latlng":"","youtubeId":"TvX6V8kCP74","publishedAt":"2017-01-09T11:32:57.000Z"},
{"guid":"760e9d8800ea","title":"Une ancienne prison devenue bibliothèque","latlng":"48.812389, 3.086122","youtubeId":"DQXJB896sBw","publishedAt":"2017-01-06T14:44:04.000Z"},
{"guid":"8be32dca0f48","title":"Le château de Vaux-le-Vicomte : un édifice majestueux","latlng":"48.565819, 2.714135","youtubeId":"4Mw93ZXOfE0","publishedAt":"2017-01-06T14:42:58.000Z"},
{"guid":"4d89cb124310","title":"La forêt de Fontainebleau : un parcours connecté","latlng":"48.413666, 2.643362","youtubeId":"H3teVbOAkOA","publishedAt":"2017-01-05T14:03:19.000Z"},
{"guid":"68be0817e0b3","title":"Chambres d'hôtes : la grange Saint-Martin","latlng":"48.487157, 2.768519","youtubeId":"lA_DMvIOve8","publishedAt":"2017-01-05T14:02:04.000Z"},
{"guid":"81234cdb0ba1","title":"La cité épiscopale de Meaux : un lieu unique","latlng":"48.960533, 2.878773","youtubeId":"G5SSXjIHbIM","publishedAt":"2017-01-04T11:13:32.000Z"},
{"guid":"1a5304dd8c34","title":"Ma poule : un magazine féminin 100% Seine-et-Marnais","latlng":"49.090782, 3.072514","youtubeId":"VFE5_-1gqaA","publishedAt":"2017-01-04T11:12:37.000Z"},
{"guid":"77ae27568be1","title":"Château de Fontainebleau : un monument classé au patrimoine mondial de l'UNESCO","latlng":"48.402118, 2.699453","youtubeId":"ZE3BiSX7bAs","publishedAt":"2017-01-03T11:26:47.000Z"},
{"guid":"ab80d77b6808","title":"Une librairie au bord de l'eau en Seine-et-Marne","latlng":"48.856829, 2.910000","youtubeId":"62UvVylblVc","publishedAt":"2017-01-03T11:25:33.000Z"},
{"guid":"1eb89faf7fa5","title":"Wissembourg : un petit coin d'Alsace en photo","latlng":"49.036890, 7.944478","youtubeId":"s3ftIrPZzFg","publishedAt":"2016-12-15T14:52:15.000Z"},
{"guid":"22d41236a0c9","title":"Le parc naturel des Vosges a ses anges gardiens","latlng":"48.039738, 7.138210","youtubeId":"Hos2nTMWwxU","publishedAt":"2016-12-15T14:51:30.000Z"},
{"guid":"1160e37cac0f","title":"Le Marché de Noël à Strasbourg : un haut lieu du tourisme","latlng":"48.581555, 7.750312","youtubeId":"65vZmwSLzJY","publishedAt":"2016-12-15T14:50:52.000Z"},
{"guid":"47079e582d5a","title":"Les sapins de Nöel : une affaire de famille en Alsace","latlng":"47.747017, 7.091933","youtubeId":"CxQlrd-LzO8","publishedAt":"2016-12-15T14:50:01.000Z"},
{"guid":"443cc6424f21","title":"La Petite France : un quartier historique de Strasbourg","latlng":"48.580016, 7.743001","youtubeId":"1nopN_CBVa0","publishedAt":"2016-12-13T11:40:12.000Z"},
{"guid":"3cb9c343497e","title":"L'île du Rhin : un havre de paix en Alsace","latlng":"48.021834, 7.578422","youtubeId":"W_9Rx-QZg6g","publishedAt":"2016-12-13T11:39:01.000Z"},
{"guid":"3ddcd0c04384","title":"Noël en Alsace : Ungersheim et son écomusée","latlng":"47.852581, 7.287184","youtubeId":"kTqAKuFItag","publishedAt":"2016-12-12T11:36:06.000Z"},
{"guid":"54269ee78868","title":"Maisons d'hôtes : une décoration typiquement alsacienne","latlng":"48.388656, 7.415538","youtubeId":"NuwPMc-swNw","publishedAt":"2016-12-12T11:34:27.000Z"},
{"guid":"38678bc915e2","title":"Maison d'hôtes : le charme alsacien à Murbach","latlng":"47.923395, 7.163864","youtubeId":"S2gamSQFCHk","publishedAt":"2016-12-08T11:36:44.000Z"},
{"guid":"599128531e4e","title":"L'histoire du Sundgau s'illustre en BD","latlng":"47.493939, 7.317419","youtubeId":"cNuPTIfBp_w","publishedAt":"2016-12-08T11:35:42.000Z"},
{"guid":"649ceb5ef211","title":"En Alsace, les vignes façonnent le paysage","latlng":"47.912046, 7.205755","youtubeId":"z-vjpUO5ssI","publishedAt":"2016-12-07T16:32:20.000Z"},
{"guid":"ea0ea89c5b6c","title":"A Riquewihr, la restauration est un art de vivre","latlng":"48.167835, 7.296544","youtubeId":"EsmZQiv2MII","publishedAt":"2016-12-07T16:28:54.000Z"},
{"guid":"fecb16602359","title":"La Vallée de la Fecht : une invitation à la randonnée","latlng":"48.013751, 7.067817","youtubeId":"tt-CBJnFs58","publishedAt":"2016-12-06T11:56:39.000Z"},
{"guid":"8c66418ddf36","title":"A Mulhouse, les façades sont des oeuvres d'art","latlng":"47.750646, 7.338775","youtubeId":"_M1Cemv_1lM","publishedAt":"2016-12-06T11:54:10.000Z"},
{"guid":"bf3cd130373c","title":"Le fort de Bourlemond : un patrimoine d'exception à restaurer","latlng":"48.363927, 5.643871","youtubeId":"sctnj-J4SoA","publishedAt":"2016-11-29T11:53:51.000Z"},
{"guid":"5d5567b8fabd","title":"La Croix de Lorraine : l'oeuvre d'une vie","latlng":"48.224460, 4.879259","youtubeId":"mpybHt3X5x8","publishedAt":"2016-11-29T11:53:33.000Z"},
{"guid":"87be8c9f0baa","title":"Chambres d'hôtes : Le château de Prauthoy","latlng":"47.678512, 5.295429","youtubeId":"zYvK-nx6wnw","publishedAt":"2016-11-28T14:04:12.000Z"},
{"guid":"a5bca1fdf64e","title":"Le Pays du Fer en Moselle","latlng":"49.329767, 6.063729","youtubeId":"nIlZ7QAm6GQ","publishedAt":"2016-11-28T14:03:48.000Z"},
{"guid":"5614b85b30c8","title":"Langres : une ville coup de coeur pour un réalisateur","latlng":"47.858638, 5.332801","youtubeId":"jdmv3k4MAJA","publishedAt":"2016-11-25T14:15:46.000Z"},
{"guid":"d8a8159be635","title":"Restaurer le patrimoine : une passion riche de découvertes","latlng":"48.110950, 5.139485","youtubeId":"fFyLnro6BgY","publishedAt":"2016-11-24T14:27:34.000Z"},
{"guid":"6eb7dbf72c97","title":"Troyes, une ville au patrimoine caché","latlng":"48.297168, 4.073911","youtubeId":"bW5FB6NN4Uc","publishedAt":"2016-11-24T14:27:15.000Z"},
{"guid":"af664e184e91","title":"Reims, un musée à ciel ouvert","latlng":"49.253129, 4.031618","youtubeId":"qA8_K06H1Hw","publishedAt":"2016-11-23T20:11:31.000Z"},
{"guid":"7dca5e6969b9","title":"En Champagne, la vigne est un héritage","latlng":"49.234913, 3.912106","youtubeId":"gGXbGUr7tGA","publishedAt":"2016-11-23T20:10:56.000Z"},
{"guid":"1d775038d02b","title":"Les Tourelles : l'atout charme de Chaumont","latlng":"48.112406, 5.138956","youtubeId":"QP_VCKv2prM","publishedAt":"2016-11-23T19:46:33.000Z"},
{"guid":"4a8b42ff9814","title":"Le viaduc de Chaumont, un joyau à protéger","latlng":"48.110568, 5.123161","youtubeId":"0E-YsnmZZO4","publishedAt":"2016-11-23T19:45:51.000Z"},
{"guid":"e3065a6a1401","title":"Les voitures du général","latlng":"48.223335, 4.879208","youtubeId":"hpZZ-hG-ZeM","publishedAt":"2016-11-21T14:06:53.000Z"},
{"guid":"f74e9d04d3c1","title":"La Boisserie, la demeure du Général De Gaulle","latlng":"48.218915, 4.883360","youtubeId":"FS7KyYC6MrI","publishedAt":"2016-11-21T14:04:45.000Z"},
{"guid":"ee204c012ff1","title":"Le Signe : le centre international dédié au graphisme","latlng":"48.110511, 5.135296","youtubeId":"MCjEMGNslqM","publishedAt":"2016-11-21T14:04:04.000Z"},
{"guid":"94776252d414","title":"Le Mémorial Charles de Gaulle, un siècle d'histoire","latlng":"48.223337, 4.879154","youtubeId":"WyB8CI-Tg1s","publishedAt":"2016-11-21T14:01:17.000Z"},
{"guid":"170430761d09","title":"Le bassin minier, une histoire indélébile","latlng":"50.461310, 2.739061","youtubeId":"82Fd0y_rYsk","publishedAt":"2016-11-18T13:57:59.000Z"},
{"guid":"fd33c5e6327c","title":"Au coeur de l'histoire : le chemin des Dames","latlng":"49.447085, 3.608747","youtubeId":"-yPDcp0R-FA","publishedAt":"2016-11-18T13:57:34.000Z"},
{"guid":"cfba2bcfa618","title":"Maison de l'Omignon : un gîte aux accents nordiques","latlng":"49.872447, 3.148554","youtubeId":"WFvisCqhysY","publishedAt":"2016-11-17T13:38:13.000Z"},
{"guid":"fa5d2fa768a3","title":"La baie de la somme, un monde à part","latlng":"50.201197, 1.626987","youtubeId":"bqTyJgFTyuo","publishedAt":"2016-11-17T13:33:07.000Z"},
{"guid":"9526971d057e","title":"Le familistère, un lieu unique au monde","latlng":"49.904692, 3.625178","youtubeId":"hO2pqFNnK1M","publishedAt":"2016-11-16T13:59:22.000Z"},
{"guid":"f9b75824fc2b","title":"Chambres d'hôtes : le château de Vadancourt","latlng":"49.900851, 3.182766","youtubeId":"p2OqIThR0z8","publishedAt":"2016-11-16T13:58:33.000Z"},
{"guid":"34b982defde5","title":"La faculté des sciences Jean Perrin, un bijou architectural","latlng":"50.434213, 2.823411","youtubeId":"4k3UnXufq7I","publishedAt":"2016-11-15T13:56:43.000Z"},
{"guid":"da6601ad426c","title":"Bonnes adresses : un gîte picard de grande classe","latlng":"50.046421, 4.024565","youtubeId":"s0wvZ5iYkms","publishedAt":"2016-11-15T13:55:39.000Z"},
{"guid":"12dee1aa783c","title":"Laon à la carte avec un photographe","latlng":"49.564348, 3.624993","youtubeId":"TBJVswAM1Ho","publishedAt":"2016-11-14T15:54:13.000Z"},
{"guid":"4fdde00a1644","title":"Guise, un château emblématique de l'histoire de France","latlng":"49.897593, 3.623305","youtubeId":"dhddauUfcuU","publishedAt":"2016-11-14T15:53:47.000Z"},
{"guid":"66db1a3a3d38","title":"Agriculture : Deux frères redynamisent l’exploitation familiale","latlng":"49.570238, 2.669481","youtubeId":"2dFxFA3VoF0","publishedAt":"2016-11-14T15:03:11.000Z"},
{"guid":"a5477f593bb6","title":"Les souterrains de la botte, un patrimoine de la Grande Guerre","latlng":"49.580483, 3.000577","youtubeId":"DmDrwurMlPs","publishedAt":"2016-11-14T15:02:52.000Z"},
{"guid":"8f3d4aa3cb72","title":"La Bataille de la Somme, une histoire de famille","latlng":"49.929165, 2.931824","youtubeId":"CyWkbmFZyik","publishedAt":"2016-11-10T11:47:46.000Z"},
{"guid":"ab8402b076d0","title":"Le Paris-Roubaix et ses mythiques pavés","latlng":"50.397349, 3.414617","youtubeId":"KuS9pLCZJ7s","publishedAt":"2016-11-10T11:46:35.000Z"},
{"guid":"ee1d5f254168","title":"Redécouvrir Saint Quentin avec une blogueuse","latlng":"49.846855, 3.287335","youtubeId":"ADvtTE5lHJo","publishedAt":"2016-11-09T12:18:15.000Z"},
{"guid":"a4dd56f44233","title":"Le château de Pierrefonds, une forteresse féérique","latlng":"49.347003, 2.980140","youtubeId":"OWXBCeA9gug","publishedAt":"2016-11-09T12:18:09.000Z"},
{"guid":"7bd6cc2a581d","title":"L'Aisne se redécouvre à moto","latlng":"49.520335, 3.321159","youtubeId":"UamvBZ5oo3o","publishedAt":"2016-11-08T11:54:11.000Z"},
{"guid":"02a13f6cc921","title":"La baie de la somme, terre promise des cyclistes picards","latlng":"50.216073, 1.628363","youtubeId":"1q9HKY6Nv3o","publishedAt":"2016-11-08T11:53:19.000Z"},
{"guid":"83a086157f3c","title":"Saint Quentin, vu d'en haut en autogire","latlng":"49.816074, 3.205778","youtubeId":"Nr0ltNWZZAY","publishedAt":"2016-11-07T13:15:24.000Z"},
{"guid":"38ab3e7b8a71","title":"Vernègues, un village chargé d'histoire","latlng":"43.685891, 5.171551","youtubeId":"6JGYLEH1X2Q","publishedAt":"2016-11-04T14:13:17.000Z"},
{"guid":"73bed5bad1c3","title":"Dans les coulisses de Troisgros, véritable institution culinaire de Roanne","latlng":"46.040016, 4.063710","youtubeId":"HxL3NYxqCQ0","publishedAt":"2016-11-04T14:12:17.000Z"},
{"guid":"ae964229d3a6","title":"Paul cézanne, le peintre d'Aix-en-Provence","latlng":"43.539076, 5.446172","youtubeId":"HtyOpeTHfAw","publishedAt":"2016-11-03T13:52:57.000Z"},
{"guid":"6787a03c5e43","title":"Les dentelles de Montmirail, emblême du Vaucluse","latlng":"44.180579, 5.060512","youtubeId":"tjdzImXLUj4","publishedAt":"2016-11-03T13:47:41.000Z"},
{"guid":"fedf97c0fa9e","title":"L'Ardèche miniature","latlng":"44.875350, 4.844537","youtubeId":"NqLeDfyzDbU","publishedAt":"2016-11-02T17:34:49.000Z"},
{"guid":"0da3b2fd1a76","title":"Bonnes adresses : un pigeonnier transformé en chambre d'hôtes","latlng":"45.087957, 5.052962","youtubeId":"PS68VOD_ojg","publishedAt":"2016-11-02T17:34:21.000Z"},
{"guid":"d3f245434f19","title":"L'isle-sur-la-Sorgue, une pépite du vaucluse","latlng":"43.920069, 5.051733","youtubeId":"81dxScdUrSA","publishedAt":"2016-11-02T17:16:15.000Z"},
{"guid":"e5cc9b6a02c4","title":"Bonnes adresses : une chambre d'hôtes au coeur des vignes","latlng":"44.167896, 4.899916","youtubeId":"LurZQh9mCbI","publishedAt":"2016-11-02T17:03:16.000Z"},
{"guid":"f2fac42e229c","title":"La N7, la nationale mythique des vacances","latlng":"44.933374, 4.886211","youtubeId":"0i46mtUdiCc","publishedAt":"2016-10-31T11:51:14.000Z"},
{"guid":"bd0185f33469","title":"Chambres d'hôtes : Les bonnes adresses de la Drôme","latlng":"44.835699, 4.97974","youtubeId":"ulqvco3DpVQ","publishedAt":"2016-10-28T12:41:42.000Z"},
{"guid":"5ff81afb5441","title":"La Garde Adhémar, un joyau perché sur la Drôme","latlng":"44.392994, 4.753298","youtubeId":"VFz96ujzpSs","publishedAt":"2016-10-28T12:41:13.000Z"},
{"guid":"015a47da7c0b","title":"Le parc Jouvet, un lieu emblématique de Valence","latlng":"44.929896, 4.885678","youtubeId":"_ETWKannCUU","publishedAt":"2016-10-27T11:29:38.000Z"},
{"guid":"627ee8448050","title":"Le château de Crussol, la forteresse d'une vie","latlng":"44.938521, 4.852486","youtubeId":"qubnz6ul1qE","publishedAt":"2016-10-27T11:28:48.000Z"},
{"guid":"4246c161afe9","title":"L'école Caminando se met au vert","latlng":"44.755302, 5.369398","youtubeId":"RrAV_kM8sis","publishedAt":"2016-10-26T12:54:24.000Z"},
{"guid":"8151e7336d7d","title":"Découverte de la Drôme depuis le Rhône","latlng":"45.742239, 4.816479","youtubeId":"1Ce1QOVTGPI","publishedAt":"2016-10-26T12:54:19.000Z"},
{"guid":"795164ed4d36","title":"Valence, une cité à la mode : rencontre avec la blogueuse Astrid","latlng":"44.933191, 4.892136","youtubeId":"APNfg9HOL94","publishedAt":"2016-10-25T12:36:24.000Z"},
{"guid":"0cf877ced215","title":"Valréas, une enclave provençale au coeur de la Drôme","latlng":"44.383429, 4.989707","youtubeId":"pbgTdKEJp0I","publishedAt":"2016-10-25T12:28:24.000Z"},
{"guid":"23fb51a6833a","title":"Le palais du facteur cheval, le rêve d'une vie","latlng":"45.256235, 5.028524","youtubeId":"tvVeiadonLE","publishedAt":"2016-10-24T14:38:42.000Z"},
{"guid":"5562a036b2b1","title":"Les Canaux, un écrin de verdure à Valence","latlng":"44.922994, 4.883200","youtubeId":"jR3KgasYftA","publishedAt":"2016-10-24T14:32:05.000Z"},
{"guid":"5a21f157962d","title":"Roscoff : rencontre avec un photographe passionné","latlng":"48.726269, -3.985435","youtubeId":"JtClkoYHRh8","publishedAt":"2016-10-14T11:15:44.000Z"},
{"guid":"17bb7dabc801","title":"Crozon, une presquîle de beauté","latlng":"48.245292, -4.489080","youtubeId":"I8hAhRM6E_c","publishedAt":"2016-10-13T17:51:29.000Z"},
{"guid":"590075060510","title":"Les enclos paroissiaux, un patrimoine religieux d'exception","latlng":"48.520218, -3.946460","youtubeId":"dL-GYKZOrfw","publishedAt":"2016-10-12T13:54:16.000Z"},
{"guid":"ad124b20375d","title":"La côte des légendes, des paysages remplis de mystères","latlng":"48.571259, -4.322737","youtubeId":"DyXd2_6UvK8","publishedAt":"2016-10-11T11:08:33.000Z"},
{"guid":"4ca10269d433","title":"Le patrimoine naturel exceptionnel de la région du Trégor","latlng":"48.786156, -3.223198","youtubeId":"sVpVKueC36I","publishedAt":"2016-10-10T11:25:37.000Z"},
{"guid":"20936b8b40b0","title":"Paimpol, une source d'inspiration","latlng":"48.779882, -3.048972","youtubeId":"OAFsjSDcuus","publishedAt":"2016-10-10T11:25:10.000Z"},
{"guid":"0936cb003c88","title":"Cancale, la perle de la côte d'émeraude","latlng":"48.675374, -1.852232","youtubeId":"05wsEMGGdwg","publishedAt":"2016-10-07T10:54:46.000Z"},
{"guid":"6a49b205f963","title":"Le château de bois-guy, le fleuron de la région","latlng":"48.438522, -1.208930","youtubeId":"qU3cwT0t1V0","publishedAt":"2016-10-07T10:51:57.000Z"},
{"guid":"6b8348e65468","title":"Saint-Malo, une cité pleine de sensations","latlng":"48.649555, -2.025412","youtubeId":"UgPBlYReSZs","publishedAt":"2016-10-06T11:54:46.000Z"},
{"guid":"c8be4cdc65c2","title":"Découvrir Fougères grâce au Géocaching, une chasse au trésor 2.0","latlng":"48.351569, -1.204455","youtubeId":"pI1GGtA4dTk","publishedAt":"2016-10-04T14:04:14.000Z"},
{"guid":"da81456c9885","title":"Le château de Fougères, monument emblématique de Bretagne","latlng":"48.353908, -1.209358","youtubeId":"QOUn9WYUruM","publishedAt":"2016-10-04T13:40:42.000Z"},
{"guid":"fa3feb072bda","title":"Le Pont du Gard, un bureau à ciel ouvert","latlng":"43.947558, 4.534960","youtubeId":"jRVkaFgvcYI","publishedAt":"2016-09-30T10:54:52.000Z"},
{"guid":"b455c6968a10","title":"La Grande Motte, un nouvel \"art de ville\"","latlng":"43.560234, 4.085967","youtubeId":"FWrqZKH-O1Y","publishedAt":"2016-09-30T10:51:10.000Z"},
{"guid":"e98207d768a0","title":"A Pézénas, Poquelin est devenu Molière","latlng":"43.461970, 3.423454","youtubeId":"ujKZW4WSBkM","publishedAt":"2016-09-30T08:34:48.000Z"},
{"guid":"b6e82478ade2","title":"Charles Trenet, le fou chantant de Narbonne","latlng":"43.183874, 2.996614","youtubeId":"ZXL3MDFklPc","publishedAt":"2016-09-28T15:05:09.000Z"},
{"guid":"8d24ad4ef258","title":"Sous les halles de Narbonne, ça envoie du steack","latlng":"43.181216, 3.005205","youtubeId":"gwYV-x9Q6Hc","publishedAt":"2016-09-28T14:53:08.000Z"},
{"guid":"617d546228ee","title":"Visite de Gruissan, un village de pêcheur devenu station balnéaire","latlng":"43.111259, 3.095355","youtubeId":"w6RM396aBik","publishedAt":"2016-09-28T14:36:49.000Z"},
{"guid":"c17bd01c4942","title":"Découvrez Antigone, un quartier clé de Montpellier","latlng":"43.608088, 3.889532","youtubeId":"sD3mwi08jB4","publishedAt":"2016-09-28T14:33:47.000Z"},
{"guid":"bf9d579dc82d","title":"L'Abbaye de Valmagne, les destin d'une famille","latlng":"43.487270, 3.562312","youtubeId":"paSLCaOzwJ4","publishedAt":"2016-09-26T11:13:00.000Z"},
{"guid":"69702532c47e","title":"La success story de Gérard Bertrand et de son vin gris de blanc","latlng":"43.167668, 3.114486","youtubeId":"c-gr4pyxmZU","publishedAt":"2016-09-26T11:07:21.000Z"},
{"guid":"ec5fc0e06147","title":"Le Fort Saint-Elme, la passion d'une vie","latlng":"42.518650, 3.093746","youtubeId":"qtBvZUAFO3I","publishedAt":"2016-09-23T13:21:46.000Z"},
{"guid":"6b923f7f202a","title":"Découvrez la vigne aux côtés d'un passionné","latlng":"42.696961, 2.979446","youtubeId":"4p99Vf60KmM","publishedAt":"2016-09-23T13:17:35.000Z"},
{"guid":"5f842b917895","title":"L'accueil est un art dans le Roussillon","latlng":"42.699680, 2.894379","youtubeId":"QGZuhzUdNOk","publishedAt":"2016-09-22T13:34:00.000Z"},
{"guid":"9a02da0809ce","title":"Ce photographe catalan a déjà tout d'un grand","latlng":"42.622722, 3.037570","youtubeId":"PkRBwjmGYRs","publishedAt":"2016-09-21T10:55:37.000Z"},
{"guid":"c6804db24518","title":"Découverte du plus grand four solaire avec Daniel Hernandez","latlng":"42.494360, 2.032508","youtubeId":"bHAj0YI7ofI","publishedAt":"2016-09-20T13:15:36.000Z"},
{"guid":"55b004a2612f","title":"La reconstruction du village de Périllos","latlng":"42.897050, 2.846919","youtubeId":"BUh4YW4iuG8","publishedAt":"2016-09-20T13:14:35.000Z"},
{"guid":"9d78944cabfa","title":"Visite de Castelnou, un village typique du roussillon","latlng":"42.618662, 2.702985","youtubeId":"Z96n2e07uZM","publishedAt":"2016-09-19T14:11:00.000Z"},
{"guid":"6a3823609079","title":"Virée au port de Saint-Cyprien","latlng":"42.621352, 3.037047","youtubeId":"KoQiduVwEnQ","publishedAt":"2016-09-19T14:06:10.000Z"},
{"guid":"33b9f73df870","title":"Balade dans le Train Jaune, emblême du Pays Catalan","latlng":"42.491319, 2.038356","youtubeId":"XM7imk9Cn_k","publishedAt":"2016-09-19T14:03:22.000Z"},
{"guid":"a424a3d1b6f6","title":"Ainhoa, un village aux couleurs basques","latlng":"43.306849, -1.498958","youtubeId":"vR6CbN9P394","publishedAt":"2016-09-16T14:01:51.000Z"},
{"guid":"0ec568fc0858","title":"Le courant d'Huchet, la petite Amazonie des Landes","latlng":"43.891316, -1.337936","youtubeId":"liNNClWoc4g","publishedAt":"2016-09-16T13:04:34.000Z"},
{"guid":"c2b256c7e912","title":"Le patrimoine de Saint-Sever","latlng":"43.759509, -0.574376","youtubeId":"d2RcXXcp5io","publishedAt":"2016-09-15T11:45:54.000Z"},
{"guid":"299b82b9ccf0","title":"Découvrez Luxey, la plage très privée des Landes","latlng":"44.263992, -0.518053","youtubeId":"2zK3Kpu7p8Q","publishedAt":"2016-09-15T11:42:59.000Z"},
{"guid":"d316efd58598","title":"Visite d'un manoir-studio qui a vu défiler les rockstars","latlng":"43.860499, -1.246356","youtubeId":"YhoVbtVXc54","publishedAt":"2016-09-15T11:40:50.000Z"},
{"guid":"394b44fb559d","title":"La Rhune, l'emblématique sommet du Pays Basque","latlng":"43.309202, -1.635242","youtubeId":"I2qr_hckugo","publishedAt":"2016-09-14T11:26:39.000Z"},
{"guid":"ca70b3adba07","title":"A Bayonne, une maison d'hôtes qui flotte","latlng":"43.497698, -1.484496","youtubeId":"qiH2kyyc2l0","publishedAt":"2016-09-14T11:24:25.000Z"},
{"guid":"0a704f4e6a63","title":"Le Sud-Ouest, terre d'inspiration pour un dessinateur anglais","latlng":"43.759316, -0.573781","youtubeId":"Gft5on-CzPI","publishedAt":"2016-09-13T11:25:03.000Z"},
{"guid":"de5b8a5e6590","title":"A Bordeaux, la librairie Mollat est une véritable institution","latlng":"44.840850, -0.578593","youtubeId":"c7_rUeyuKS8","publishedAt":"2016-09-12T13:32:43.000Z"},
{"guid":"29f1077ffe1c","title":"La dune du Pilat, un coup de coeur à partager","latlng":"44.595554, -1.209580","youtubeId":"flYLRWEFuME","publishedAt":"2016-09-12T13:31:55.000Z"},
{"guid":"da1745ca74cc","title":"L'Europe en échasses, le grand tour d'un jeune landais","latlng":"44.444568, -1.251023","youtubeId":"8Xup2BQVVL0","publishedAt":"2016-09-09T11:46:36.000Z"},
{"guid":"0adbac3c6cc4","title":"L'esprit paysan se cultive à l'Ecomusée de Marquèse","latlng":"44.149125, -0.747315","youtubeId":"bsXj4dJWVwI","publishedAt":"2016-09-09T11:41:31.000Z"},
{"guid":"839ac618d284","title":"A Biscarrosse, des cabanes pour un grand bol d'air","latlng":"44.443474, -1.193353","youtubeId":"mUP-3Y3H30A","publishedAt":"2016-09-08T11:33:25.000Z"},
{"guid":"c337258c9fdd","title":"Biscarrosse, capitale de l'hydraviation","latlng":"44.356339, -1.152500","youtubeId":"zyx5tqLZyfs","publishedAt":"2016-09-08T11:29:12.000Z"},
{"guid":"294a25c7b0de","title":"A Biscarrosse, une ville aéronautique","latlng":"44.367507, -1.131901","youtubeId":"a_uAG9OMT3w","publishedAt":"2016-09-08T11:26:51.000Z"},
{"guid":"bdc86c986d86","title":"L'accrobranche dans les Landes","latlng":"44.440585, -1.241337","youtubeId":"zgK_LZBms5c","publishedAt":"2016-09-07T13:01:56.000Z"},
{"guid":"d174d5f9409d","title":"Dans les Landes, les tomates se mettent au vert","latlng":"44.333169, -1.090840","youtubeId":"ClZYM8iMSFM","publishedAt":"2016-09-07T13:00:48.000Z"},
{"guid":"ec5495de5a68","title":"Seignosse, une commune riche de contrastes","latlng":"43.707839, -1.430007","youtubeId":"GE8acKwBFrw","publishedAt":"2016-09-06T13:19:39.000Z"},
{"guid":"71eb4dd9e895","title":"A Capbreton, l'océan façonne le paysage","latlng":"43.639972, -1.431529","youtubeId":"qLy2GxXLZWg","publishedAt":"2016-09-06T13:15:21.000Z"},
{"guid":"c370da1c95cc","title":"A Seignosse, un étang noir et une nature magique","latlng":"43.695240, -1.370634","youtubeId":"ES-jSd4ksFs","publishedAt":"2016-09-05T14:06:07.000Z"},
{"guid":"61a955d4f3f6","title":"Biscarrosse, une terre de légendes racontées par des Greeters","latlng":"44.444647, -1.250923","youtubeId":"ZWle_2oLIl8","publishedAt":"2016-09-05T14:01:47.000Z"},
{"guid":"2f50777ed928","title":"Portrait de Patrick Rougereau, référence mondiale de la photo culinaire","latlng":"49.211872, -0.378050","youtubeId":"OcHpc52Oq3Q","publishedAt":"2016-06-16T10:30:53.000Z"},
{"guid":"600f9c30570d","title":"Le Chateau d'Oléron, un fief ostréicole","latlng":"45.885027, -1.188859","youtubeId":"FX3M_gi-ysw","publishedAt":"2016-06-15T15:27:53.000Z"},
{"guid":"208ee8f7ad16","title":"Le Mont Saint-Michel, une baie très en vue","latlng":"48.633669, -1.508225","youtubeId":"ifZeJXusTWM","publishedAt":"2016-06-15T11:00:07.000Z"},
{"guid":"a38b775884ce","title":"La Normandie célèbre Guillaume le Conquérant","latlng":"49.293985, -0.097050","youtubeId":"KJAoYROB6kU","publishedAt":"2016-06-14T10:57:30.000Z"},
{"guid":"8559c6c7f831","title":"En Normandie, une abbaye fait campagne pour préserver son patrimoine","latlng":"49.206486, -0.687832","youtubeId":"h5sk2uoYnp8","publishedAt":"2016-06-14T10:56:03.000Z"},
{"guid":"41bd317eca3a","title":"Marguerite Duras et Trouville","latlng":"49.372677, 0.084208","youtubeId":"_3mEIb2Yqms","publishedAt":"2016-06-13T10:33:16.000Z"},
{"guid":"ce896c80d7d2","title":"Rouen, berceau de l'impressionnisme","latlng":"49.444765, 1.094568","youtubeId":"EK1SghzC558","publishedAt":"2016-06-13T10:33:10.000Z"},
{"guid":"46151666971c","title":"La Normandie de Victor Hugo","latlng":"49.512166, 0.673677","youtubeId":"NyaOtyJ4DNE","publishedAt":"2016-06-13T10:32:33.000Z"},
{"guid":"9c31aca017b8","title":"Chausey, un trésor d'archipel","latlng":"48.871387, -1.823938","youtubeId":"nlXwOaPOpDM","publishedAt":"2016-06-13T10:31:57.000Z"},
{"guid":"b08eb78ac9de","title":"Jacques Prévert, le poète amoureux de la Hague","latlng":"49.712180, -1.896770","youtubeId":"oZMBslz1wq0","publishedAt":"2016-06-13T10:30:17.000Z"},
{"guid":"a3e26ea5d5fc","title":"La Côte Fleurie, une terre d'impression","latlng":"49.320856, -0.016196","youtubeId":"yH8B2jgEJBs","publishedAt":"2016-06-13T10:29:54.000Z"},
{"guid":"f8b869eedcb1","title":"À Honfleur, on fabrique des bureaux qui se règlent en hauteur","latlng":"49.416973, 0.254864","youtubeId":"RpgixRAubm4","publishedAt":"2016-06-13T08:47:49.000Z"},
{"guid":"573260335fe7","title":"Saint-Maclou, l'âme d'un quartier de Rouen","latlng":"49.439792, 1.098426","youtubeId":"4y5MvCE9t_c","publishedAt":"2016-06-13T08:45:38.000Z"},
{"guid":"79b9fde077bc","title":"Le Havre, une ville de béton classée à l'UNESCO","latlng":"49.492757, 0.096722","youtubeId":"V4Uh6aUh69I","publishedAt":"2016-06-13T08:42:15.000Z"},
{"guid":"20a0e5b12107","title":"À Honfleur, une New-Yorkaise a ouvert une chambre d'hôtes","latlng":"49.422555, 0.231818","youtubeId":"c60lJ8in47A","publishedAt":"2016-06-09T12:53:13.000Z"},
{"guid":"5a33bd004ed0","title":"La Seine, un cadre idyllique au-delà des clichés","latlng":"49.443070, 1.069197","youtubeId":"GYdB7Zn3Pf4","publishedAt":"2016-06-08T14:16:56.000Z"},
{"guid":"f15fc6808d67","title":"Honfleur, sur un air de samba","latlng":"49.419299, 0.232360","youtubeId":"c77CAxhDiFI","publishedAt":"2016-06-07T13:16:07.000Z"},
{"guid":"22ded64b9fd1","title":"Le 14 juin 1944, le retour du Général De Gaulle en 1944","latlng":"49.337436, -0.467552","youtubeId":"LTS4kAl9elw","publishedAt":"2016-06-06T10:44:52.000Z"},
{"guid":"0cc2b354099a","title":"Le port Winston, une idée de génie","latlng":"49.340447, -0.620428","youtubeId":"PW0B65byCRM","publishedAt":"2016-06-06T10:44:41.000Z"},
{"guid":"6d829c805d20","title":"Le commando Kieffer, les 177 français du débarquement","latlng":"49.294637, -0.286111","youtubeId":"N48Uu9MdmB0","publishedAt":"2016-06-06T10:44:13.000Z"},
{"guid":"eece0a22e84f","title":"À Falaise, un mémorial pour les civils de la guerre","latlng":"48.894117, -0.202340","youtubeId":"769XWM_rOp4","publishedAt":"2016-06-06T10:44:03.000Z"},
{"guid":"6ebbf6434140","title":"Omaha la sanglante","latlng":"49.370761, -0.879949","youtubeId":"mkNqz72d6JY","publishedAt":"2016-06-06T10:43:52.000Z"},
{"guid":"cd40c373a5e1","title":"Paludière, un mode de vie plein de sel","latlng":"47.307619, -2.450415","youtubeId":"JOzavVSbaH8","publishedAt":"2016-06-03T13:45:59.000Z"},
{"guid":"0273ad0dea42","title":"Saint-Vincent-sur-Jard, le havre de paix de Clémenceau","latlng":"46.406290, -1.547546","youtubeId":"ObvapIzRgWM","publishedAt":"2016-06-03T13:45:16.000Z"},
{"guid":"e3f7be949a4f","title":"À Nantes, une chapelle transformée en hôtel 4 étoiles","latlng":"47.220018, -1.540980","youtubeId":"0lB7ZfbZXkQ","publishedAt":"2016-06-02T12:54:38.000Z"},
{"guid":"1c609bb42726","title":"Aux Sables-d'Olonne, les coquillages subliment les murs","latlng":"46.497785, -1.785599","youtubeId":"nXAPEeCf2cA","publishedAt":"2016-06-02T12:54:24.000Z"},
{"guid":"612a46d1ae89","title":"La Brière, un univers vert en dehors du temps","latlng":"47.372873, -2.214025","youtubeId":"DHSNKAygcdk","publishedAt":"2016-06-01T11:00:58.000Z"},
{"guid":"88591c4255df","title":"La Baule, une station balnéaire à deux visages","latlng":"47.281439, -2.392174","youtubeId":"mUdz2YQMg28","publishedAt":"2016-06-01T11:00:02.000Z"},
{"guid":"e7982aef0c69","title":"Saint-Nazaire, un décor photogénique à ciel ouvert","latlng":"47.273341, -2.214210","youtubeId":"L2R0zQQkK38","publishedAt":"2016-05-31T13:08:28.000Z"},
{"guid":"16eef1ae7312","title":"Le canal de Haute-Perche, un trésor du pays de Retz","latlng":"47.124613, -2.022813","youtubeId":"z_djOSV8iFY","publishedAt":"2016-05-31T12:59:28.000Z"},
{"guid":"a0398e26a468","title":"Pornic, une cité riche de ses villages","latlng":"47.115578, -2.104152","youtubeId":"2uo9CNYem1g","publishedAt":"2016-05-30T10:32:12.000Z"},
{"guid":"3bcb607580b9","title":"Une maison d'hôtes de bon goût à Guérande","latlng":"47.329278, -2.429539","youtubeId":"YGjrTsqrt2I","publishedAt":"2016-05-26T12:24:04.000Z"},
{"guid":"0007106c966a","title":"A Nantes, l'art se vit au quotidien","latlng":"47.204744, -1.546878","youtubeId":"vUgQ4wjkZUk","publishedAt":"2016-05-25T11:35:40.000Z"},
{"guid":"a2102c41f684","title":"A Batz-sur-Mer, un Blockhaus pour la mémoire","latlng":"47.270533, -2.469181","youtubeId":"0HwlbFmIXNs","publishedAt":"2016-05-25T11:33:35.000Z"},
{"guid":"10e4ddca8d71","title":"Le Croisic, une cité au charme préservé","latlng":"47.293677, -2.510811","youtubeId":"WS1Aa_5iPhY","publishedAt":"2016-05-23T11:21:19.000Z"},
{"guid":"e9926fa55728","title":"Le Château la Combe, une maison d'hôtes dans le Périgord","latlng":"45.491329, 0.460707","youtubeId":"B0V_6vfgWcg","publishedAt":"2016-05-20T10:34:09.000Z"},
{"guid":"81e7133ccf85","title":"A Bordeaux, on peut surfer au café","latlng":"44.863247, -0.574060","youtubeId":"gTORsLA6xJo","publishedAt":"2016-05-19T12:50:47.000Z"},
{"guid":"8e700d37ded2","title":"Espelette, un village basque plein de piment","latlng":"43.340380, -1.445940","youtubeId":"BzAW_OGLi-U","publishedAt":"2016-05-19T12:44:18.000Z"},
{"guid":"2ddea6b112ac","title":"Dans le Périgord, les anglais vivent à la française","latlng":"45.363912, 0.461036","youtubeId":"PrI4X2Fnjag","publishedAt":"2016-05-18T12:45:13.000Z"},
{"guid":"3bc44b5b538b","title":"L'Herbe, un village ostréicole du bassin d'Arcachon","latlng":"44.689485, -1.237229","youtubeId":"Jz0dlqLyIM4","publishedAt":"2016-05-18T12:39:04.000Z"},
{"guid":"fc758f419962","title":"Le pescatourisme sur le bassin d'Arcachon","latlng":"44.687599, -1.233343","youtubeId":"PzWHcMQCXY0","publishedAt":"2016-05-17T11:26:40.000Z"},
{"guid":"db85db588c34","title":"Saint-Emilion, un site classé au patrimoine mondial de l'Unesco","latlng":"44.893698, -0.156545","youtubeId":"L07xp2o8fkA","publishedAt":"2016-05-13T13:01:24.000Z"},
{"guid":"b2b00e32f6a5","title":"Arcachon, une chaleureuse ville d'hiver","latlng":"44.659917, -1.168025","youtubeId":"ru_zk8fdCrQ","publishedAt":"2016-05-13T10:01:39.000Z"},
{"guid":"1ccdb1f1637a","title":"Libourne, une ville de Gironde à découvrir au fil de l'eau","latlng":"44.913021, -0.249927","youtubeId":"YdFxTUJzdm8","publishedAt":"2016-05-13T09:57:04.000Z"},
{"guid":"4b60be9e30a0","title":"A Blaye, la vigne est un atout touristique","latlng":"45.136035, -0.662609","youtubeId":"MuLYDjYNdBk","publishedAt":"2016-05-11T11:28:43.000Z"},
{"guid":"d931c66e9304","title":"Une maison d'hôtes en Gironde, un projet de vie","latlng":"45.035422, -0.497677","youtubeId":"aAkZcHu-oww","publishedAt":"2016-05-11T11:26:09.000Z"},
{"guid":"7a4f5064049e","title":"La Gironde, un Estuaire de découvertes","latlng":"45.351361, -0.764972","youtubeId":"gcNuH7yzwUw","publishedAt":"2016-05-10T11:15:08.000Z"},
{"guid":"4602a221c370","title":"A Blaye, la citadelle accueille un bar à vin","latlng":"45.128660, -0.665635","youtubeId":"eSnIirJs-HE","publishedAt":"2016-05-09T11:44:38.000Z"},
{"guid":"c6ba75b0e84c","title":"Le Golfe du Morbihan, l'une des plus belles baies du monde","latlng":"47.577142, -2.762315","youtubeId":"2s_0p0GCvlI","publishedAt":"2016-04-25T16:05:51.000Z"},
{"guid":"b908f158f6b7","title":"Saint-Cado, une île de la ria d'Etel pleine de charme","latlng":"47.687229, -3.184812","youtubeId":"kO8xZ6Bb-Fk","publishedAt":"2016-04-22T10:23:01.000Z"},
{"guid":"4f0722e2deda","title":"Plougrescant, le joyau de la côte de granit rose","latlng":"48.842319, -3.228153","youtubeId":"lSOhdUGZBfI","publishedAt":"2016-04-21T10:47:47.000Z"},
{"guid":"67443487986b","title":"Dans le Finistère, magnifique balade sur l'île de Batz","latlng":"48.742248, -4.014993","youtubeId":"ChpjtqJ3cpc","publishedAt":"2016-04-20T10:55:18.000Z"},
{"guid":"ce6daac43102","title":"Dans le Morbihan, une ancienne longère transformée en maison d'hôtes","latlng":"47.615565, -2.903252","youtubeId":"Kr20SahQTBs","publishedAt":"2016-04-20T10:49:49.000Z"},
{"guid":"c9d791dd527d","title":"L'île d'Hoëdic, les charmes d'une vie insulaire en Bretagne","latlng":"47.339558, -2.878993","youtubeId":"XfDt0bahBFo","publishedAt":"2016-04-15T10:53:29.000Z"},
{"guid":"c7d7bf138324","title":"A Carnac, l'histoire s'inscrit dans les menhirs","latlng":"47.592601, -3.082656","youtubeId":"cw-UOzGDV7k","publishedAt":"2016-04-15T10:47:49.000Z"},
{"guid":"660971f23e0e","title":"Le GR34, la Bretagne sauvage entre Quiberon et Carnac","latlng":"47.469449, -3.079687","youtubeId":"QyjPjlhHDNQ","publishedAt":"2016-04-14T10:55:59.000Z"},
{"guid":"9d5d1d08d4bb","title":"Dans le Morbihan, les bagads ont leur relève","latlng":"47.592448, -3.082972","youtubeId":"QvAAfOIWSa4","publishedAt":"2016-04-14T10:51:21.000Z"},
{"guid":"92569f7a0aae","title":"A Quiberon, on pêche le thon sur un vieux gréement","latlng":"47.485348, -3.099716","youtubeId":"LLPoIuRfz2w","publishedAt":"2016-04-13T10:41:49.000Z"},
{"guid":"56a41568ba86","title":"A Quiberon, les Niniches remplace la madeleine","latlng":"47.489201, -3.123318","youtubeId":"sS0nnX8g7kQ","publishedAt":"2016-04-12T10:48:08.000Z"},
{"guid":"cf77e272b20f","title":"Le château Turpault, l'emblême de Quiberon","latlng":"47.473594, -3.130317","youtubeId":"va_1uo_bQ4E","publishedAt":"2016-04-11T13:40:07.000Z"},
{"guid":"dabe22a0dcee","title":"En Ariège, un camping rétro à l'heure américaine","latlng":"43.100516, 1.811345","youtubeId":"xVLAEK6WzQI","publishedAt":"2016-04-08T10:49:21.000Z"},
{"guid":"0bca899498d6","title":"A Martel, un authentique train à vapeur ressuscité","latlng":"44.933373, 1.609767","youtubeId":"sgABw9Q_3JY","publishedAt":"2016-04-07T13:40:07.000Z"},
{"guid":"55cd1622e637","title":"A Sorèze, une abbaye-école devenue hôtel","latlng":"43.451847, 2.066978","youtubeId":"-dWcTEQ2_os","publishedAt":"2016-04-05T11:01:04.000Z"},
{"guid":"fbb8b8651ea6","title":"Toulouse, la ville en rose","latlng":"43.604237, 1.444148","youtubeId":"42OuGiQT4dQ","publishedAt":"2016-04-05T11:00:27.000Z"},
{"guid":"c20f84e08da3","title":"Cordes-sur-Ciel, une cité médiévale au zénith","latlng":"44.063587, 1.950323","youtubeId":"66p4E1Nyojs","publishedAt":"2016-04-04T14:05:59.000Z"},
{"guid":"9298b44708d6","title":"Le viaduc du Viaur, une \"dentelle d'acier\"","latlng":"44.123665, 2.331011","youtubeId":"lxNgzXeD7xE","publishedAt":"2016-04-04T14:04:31.000Z"},
{"guid":"818d3b04975c","title":"Les coulisses d'une ouverture de chambre d'hôtes","latlng":"","youtubeId":"dXjlluwKCvk","publishedAt":"2016-04-04T14:04:16.000Z"},
{"guid":"41c403dce2a0","title":"Le château de Penne, la passion d'une vie","latlng":"44.078452, 1.727267","youtubeId":"4raeANYHJaA","publishedAt":"2016-04-04T14:01:08.000Z"},
{"guid":"21cf5f4b7d87","title":"La cathédrale Sainte-Cécile d'Albi est une merveille","latlng":"43.928340, 2.142600","youtubeId":"LiWNK1p00q0","publishedAt":"2016-04-04T13:55:20.000Z"},
{"guid":"f439a90687c4","title":"Les trésors cachés d'Avignon","latlng":"43.949604, 4.805350","youtubeId":"g02oVC4clS0","publishedAt":"2016-04-04T13:54:00.000Z"},
{"guid":"1cb8cc6ad972","title":"Valréas, une enclave provençale","latlng":"44.384303, 4.989986","youtubeId":"DyopVNE1WIo","publishedAt":"2016-04-04T13:53:03.000Z"},
{"guid":"d3384de27d38","title":"Le fort de Brégançon","latlng":"43.093171, 6.322125","youtubeId":"29MeWSYVCWg","publishedAt":"2016-04-04T13:51:58.000Z"},
{"guid":"337d702975c8","title":"Le château de la Barben","latlng":"43.628143, 5.205868","youtubeId":"9AuwkgFc7wQ","publishedAt":"2016-04-04T13:51:29.000Z"},
{"guid":"6acb85a18e8f","title":"Un entrepreneur à Porquerolles","latlng":"43.000092, 6.202241","youtubeId":"vWBfWFI9SSg","publishedAt":"2016-04-04T13:49:56.000Z"},
{"guid":"8035bbfe5e69","title":"L'isle-sur-la-sorgue, la Venise du Vaucluse","latlng":"43.920116, 5.051649","youtubeId":"Bl1h4gzeoBE","publishedAt":"2016-04-04T13:46:58.000Z"},
{"guid":"7ad665edbba1","title":"Moustier Sainte-Marie en Provence","latlng":"43.847041, 6.222135","youtubeId":"Swm28HSDEXU","publishedAt":"2016-04-04T13:46:38.000Z"},
{"guid":"c13889aef1ec","title":"Saint-Remy-De-Provence, un art de vivre","latlng":"43.788964, 4.831872","youtubeId":"Q-dCCPHVKYU","publishedAt":"2016-04-04T13:46:17.000Z"},
{"guid":"a1483f7ee883","title":"Randonnée à la montagne Sainte-Victoire","latlng":"43.539066, 5.644165","youtubeId":"bL03VX8FMSA","publishedAt":"2016-04-04T13:44:58.000Z"},
{"guid":"cbc192e5f474","title":"Visite de Coursegoules, un village de caractère.","latlng":"43.794485, 7.039112","youtubeId":"le0mEiSnmxU","publishedAt":"2016-04-04T13:42:43.000Z"},
{"guid":"ea41b12ef636","title":"Pierre Aimon, photographe aérien et cartographe","latlng":"43.730782, 6.783449","youtubeId":"IZQgHH928Wo","publishedAt":"2016-03-18T13:27:56.000Z"},
{"guid":"bff2e9b8f1de","title":"Le château de la Napoule, le rêve fou d'un couple d'américains","latlng":"43.523277, 6.943012","youtubeId":"jkxuBQckgxU","publishedAt":"2016-03-17T10:46:11.000Z"},
{"guid":"e1b05c2a5423","title":"Nice, la promenade d'une blogueuse","latlng":"43.696114, 7.276435","youtubeId":"GH4Vvc2SjHU","publishedAt":"2016-03-17T10:11:17.000Z"},
{"guid":"d2651c8b7f9c","title":"Le centre historique de Grasse fait peau neuve","latlng":"43.658194, 6.923861","youtubeId":"RHoTtdbqRck","publishedAt":"2016-03-16T11:08:46.000Z"},
{"guid":"84e20837b631","title":"À Grasse, ça gaze pour les scooters électriques","latlng":"43.625949, 6.938337","youtubeId":"FQ4MZxrWXBY","publishedAt":"2016-03-16T11:07:31.000Z"},
{"guid":"b150427f7d5a","title":"Sur la Côte d'Azur, le bonheur","latlng":"43.643249, 6.901356","youtubeId":"m42_agwwHTE","publishedAt":"2016-03-16T10:37:36.000Z"},
{"guid":"8af7629eba1f","title":"Les Îles de Lérins, l'Eden de la Côte d'Azur","latlng":"43.523497, 7.044553","youtubeId":"DcwzuX_qCps","publishedAt":"2016-03-15T10:46:29.000Z"},
{"guid":"8e73da9e4b14","title":"La villa Ephrussi, une invitation au voyage","latlng":"43.696600, 7.328466","youtubeId":"wTAwkTsogwo","publishedAt":"2016-03-15T10:29:50.000Z"},
{"guid":"f6bdc7dd92d7","title":"Grasse, une note de mystère","latlng":"43.660964, 6.923328","youtubeId":"wsz8acVAJXU","publishedAt":"2016-03-14T10:48:51.000Z"},
{"guid":"195ec2caf5c6","title":"Grasse, un parfum de Côte d'Azur","latlng":"43.660956, 6.923414","youtubeId":"XH6UAlYX9rg","publishedAt":"2016-03-14T10:12:56.000Z"},
{"guid":"f4aae0a901ed","title":"A Lille, le café est à la page","latlng":"50.629614, 3.055366","youtubeId":"zKHPrkqzDnU","publishedAt":"2016-03-11T10:12:25.000Z"},
{"guid":"dfa5376ddc5d","title":"La Chartreuse de Neuville, le réveil de la belle endormie","latlng":"50.471651, 1.789577","youtubeId":"yJzImuMY0Is","publishedAt":"2016-03-10T10:18:11.000Z"},
{"guid":"2d352766de44","title":"A Lille, l'ancien hospice est un hôtel de luxe","latlng":"50.631264, 3.067721","youtubeId":"XqXqSOpVEp8","publishedAt":"2016-03-09T11:38:17.000Z"},
{"guid":"240e8f2a09f7","title":"Au fil des canaux du Cambrésis","latlng":"50.179691, 3.223775","youtubeId":"DAWHbDQVyFE","publishedAt":"2016-03-08T10:19:10.000Z"},
{"guid":"f98597e39a2f","title":"La piscine de Roubaix, un grand bain de culture","latlng":"50.692609, 3.167305","youtubeId":"fLwxk4cNc9U","publishedAt":"2016-03-07T10:31:28.000Z"},
{"guid":"43fb0245ea5a","title":"La vallée du Brezons, terre d'Aubrac et de burons","latlng":"44.967691, 2.806787","youtubeId":"7Sphfdx3_ck","publishedAt":"2016-03-03T10:54:29.000Z"},
{"guid":"4f4bd4b36cba","title":"Le jardin de Vauville, un incontournable de la Hague","latlng":"49.634329, -1.845323","youtubeId":"60aFyA6MTXI","publishedAt":"2016-03-02T12:18:03.000Z"},
{"guid":"ce707209aea9","title":"Le Clos Masure, la ferme du pays de Caux","latlng":"49.697507, 0.817381","youtubeId":"y-Jjo17Pi74","publishedAt":"2016-03-02T12:01:59.000Z"},
{"guid":"61fd78c350bf","title":"La forêt, une terre de culture","latlng":"48.974193, 7.493490","youtubeId":"ws3jUqscjZ8","publishedAt":"2016-03-01T15:38:34.000Z"},
{"guid":"0d4b4e719e36","title":"Batz, une ile de culture","latlng":"48.747448, -4.013926","youtubeId":"vumYMkosbxU","publishedAt":"2016-02-29T14:14:21.000Z"},
{"guid":"d4c849760f3e","title":"La pointe du Van, la Bretagne à l'état brut","latlng":"48.064919, -4.713971","youtubeId":"zkkxycEyTdE","publishedAt":"2016-02-29T12:47:36.000Z"},
{"guid":"94da95ddfbe9","title":"La cité des électriciens, un patrimoine dans la lumière","latlng":"50.482490, 2.553220","youtubeId":"ICGshg7PjRQ","publishedAt":"2016-02-19T10:49:57.000Z"},
{"guid":"1d58f11ed6f6","title":"Le bassin minier, un site classé pour l'éternité","latlng":"50.445832, 2.782408","youtubeId":"0gVS_ouo8Eg","publishedAt":"2016-02-19T10:09:40.000Z"},
{"guid":"e409ad01db2a","title":"La réussite d'un boulanger-pâtissier du Centre-Val de Loire","latlng":"47.419665, 0.664242","youtubeId":"RpugYFDvRLU","publishedAt":"2016-02-18T11:47:46.000Z"},
{"guid":"d7a4bcc3a91d","title":"Les Marais d'Opale, une vie au fil de l'eau","latlng":"50.775287, 2.237347","youtubeId":"5a4Wo02CbFg","publishedAt":"2016-02-18T11:47:46.000Z"},
{"guid":"cc64597e205f","title":"Les Aiguilles Rouges, un patrimoine d'exception à préserver","latlng":"46.003873, 6.922352","youtubeId":"KFNNZ8B09P8","publishedAt":"2016-02-18T11:47:46.000Z"},
{"guid":"fb71f9757372","title":"L'abbaye d'Aulps, majestueux vestige Savoyard","latlng":"46.241590, 6.649903","youtubeId":"kJAVkkml-7s","publishedAt":"2016-02-18T11:47:46.000Z"},
{"guid":"0b9d0b396bb0","title":"Saint-Nicolas de Véroce, un hameau de Saint-Gervais","latlng":"45.854881, 6.723003","youtubeId":"HG9MReqZKQQ","publishedAt":"2016-02-18T11:47:46.000Z"},
{"guid":"68b6dfd441e6","title":"À  Château-Chalon, le passé se vit au présent","latlng":"46.754996, 5.625938","youtubeId":"l9WRqyq5A1Q","publishedAt":"2016-02-18T11:47:46.000Z"},
{"guid":"7268aad1ab47","title":"Le Centre-Val de Loire, un havre de paix pour Baryton","latlng":"48.566631, 1.619523","youtubeId":"boxcLYO1Aks","publishedAt":"2016-02-18T11:47:46.000Z"},
{"guid":"3699665bec1f","title":"À Arras, des photos pour cadeaux souvenirs","latlng":"50.292285, 2.780523","youtubeId":"klIdKS9u_bE","publishedAt":"2016-02-17T13:28:00.000Z"},
{"guid":"0b7a8b62b344","title":"La citadelle d'Arras, un bastion pour les entrepreneurs","latlng":"50.282738, 2.759467","youtubeId":"iOYMQHDSHY4","publishedAt":"2016-02-16T13:16:33.000Z"},
{"guid":"c5907531f768","title":"Le beffroi d'Arras, un monument phare","latlng":"50.291074, 2.777051","youtubeId":"qBZ8jYLUkjg","publishedAt":"2016-02-15T14:00:17.000Z"},
{"guid":"deeddbe69e28","title":"L'Artois, une terre de mémoire de la grande guerre","latlng":"50.401043, 2.719481","youtubeId":"drhbgorVG48","publishedAt":"2016-02-15T14:00:17.000Z"},
{"guid":"21af7eb5f90a","title":"Le patrimoine savoyard, une histoire de traditions","latlng":"46.312814, 6.490766","youtubeId":"KVNXblSJFX8","publishedAt":"2016-02-12T16:00:48.000Z"},
{"guid":"e127ad458f97","title":"Le hameau de l'Ecot un lieu de vie à part","latlng":"45.379574, 7.086418","youtubeId":"hERwxwJK-UI","publishedAt":"2016-02-12T16:00:47.000Z"},
{"guid":"2c8dda170c23","title":"L'art prend de la hauteur","latlng":"45.443443, 6.976555","youtubeId":"c2j6YnYvDcg","publishedAt":"2016-02-11T17:38:35.000Z"},
{"guid":"050ae9a3f76c","title":"Au coeur des 3 vallées, un précieux héritage familial","latlng":"45.304591, 6.547889","youtubeId":"HWiO2l8rPFk","publishedAt":"2016-02-11T17:18:09.000Z"},
{"guid":"18ae72d6e2be","title":"À Chambéry, confort rime avec design","latlng":"45.565614, 5.917870","youtubeId":"MGiiLlN2aSw","publishedAt":"2016-02-10T14:43:17.000Z"},
{"guid":"813be7bbd7e7","title":"Val Thorens, une histoire de passionnés","latlng":"45.298344, 6.582221","youtubeId":"SeiRbbiUQPY","publishedAt":"2016-02-10T14:25:45.000Z"},
{"guid":"2f02fa42a14a","title":"À Chamonix, les mazots retrouvent une seconde vie","latlng":"45.954729, 6.905090","youtubeId":"JJkxUCC1tR4","publishedAt":"2016-02-04T14:37:44.000Z"},
{"guid":"cea515453a80","title":"L'Aiguille du Midi, un balcon sur le Mont Blanc","latlng":"45.879348, 6.887467","youtubeId":"MmoUeAQ4LLA","publishedAt":"2016-02-03T15:28:43.000Z"},
{"guid":"28da39c47575","title":"Le tramway du Mont Blanc, une balade centenaire","latlng":"45.897876, 6.711066","youtubeId":"61FammA5rh4","publishedAt":"2016-02-01T12:07:15.000Z"},
{"guid":"862a425cd071","title":"Baume-Les-Messieurs, un village à couper le souffle","latlng":"46.708569, 5.647597","youtubeId":"c51etwnAj84","publishedAt":"2016-01-29T11:35:48.000Z"},
{"guid":"88cf9c4a896f","title":"En Franche-Comté, le bonheur est dans les arbres","latlng":"46.978765, 5.996786","youtubeId":"-8xN-toOif8","publishedAt":"2016-01-29T11:13:46.000Z"},
{"guid":"92b193dd1f51","title":"En Franche-Comté, chiner le temps d’un café","latlng":"47.663615, 6.205443","youtubeId":"gOug4C9ksNY","publishedAt":"2016-01-28T11:11:44.000Z"},
{"guid":"c37cefe5e82d","title":"En Franche-Comté, un fleuriste cultive les arrosoirs","latlng":"47.733359, 6.969521","youtubeId":"cmR6x-QMLqg","publishedAt":"2016-01-27T11:00:08.000Z"},
{"guid":"53554c66cec1","title":"Besançon, la capitale du temps","latlng":"47.235897, 6.026762","youtubeId":"FCiGI_UM8PY","publishedAt":"2016-01-27T10:38:22.000Z"},
{"guid":"b1f2dadda9ea","title":"Au fort des Rousses, les comtés sont légion","latlng":"46.479960, 6.055001","youtubeId":"qiWzZ57q4h4","publishedAt":"2016-01-26T10:57:50.000Z"},
{"guid":"3ac27a1be9c4","title":"Le Ballon d’Alsace, une bouffée d’oxygène en Franche-Comté","latlng":"47.822320, 6.844981","youtubeId":"i04taOwgkaQ","publishedAt":"2016-01-25T11:14:10.000Z"},
{"guid":"2bcfad428a69","title":"À Belfort le lion veille","latlng":"47.636672, 6.864846","youtubeId":"YWyjGdBd4xk","publishedAt":"2016-01-25T11:13:25.000Z"},
{"guid":"5ec8900413cb","title":"À Dole, la collégiale donne le « La »","latlng":"47.092499, 5.494734","youtubeId":"2g8o0fn1ZYo","publishedAt":"2016-01-22T11:29:06.000Z"},
{"guid":"2ad9c4b0af69","title":"Salins-les-Bains, le sel du Jura","latlng":"46.937505, 5.876371","youtubeId":"IK3D63IZi48","publishedAt":"2016-01-22T11:21:05.000Z"},
{"guid":"4b3a5f2e8e76","title":"À Besançon, le monastère est devenu un hôtel","latlng":"47.231812, 6.027723","youtubeId":"ydUWIdHppS0","publishedAt":"2016-01-21T10:52:21.000Z"},
{"guid":"94e332bb1750","title":"Paul-Emile Victor a son musée dans le Massif du Jura","latlng":"46.460672, 6.029682","youtubeId":"joojGUF6HSs","publishedAt":"2016-01-20T11:00:14.000Z"},
{"guid":"f25564effb5d","title":"Mouthe, une douce Sibérie Jurassienne","latlng":"46.710114, 6.192485","youtubeId":"jdqIUa_kR9Q","publishedAt":"2016-01-20T10:26:12.000Z"},
{"guid":"8bba2b13da9b","title":"Arlay, un château Jurassien plein de caractère","latlng":"46.754073, 5.541153","youtubeId":"t_2-jZ05ljo","publishedAt":"2016-01-19T12:03:22.000Z"},
{"guid":"5c73678e6c73","title":"À Besançon, le quartier Battant est plein de vie","latlng":"47.239791, 6.020642","youtubeId":"39fhK5DN5mU","publishedAt":"2016-01-19T12:03:03.000Z"},
{"guid":"27e76d187b4a","title":"Les escaliers de Besançon, un patrimoine couper le souffle","latlng":"47.236081, 6.021714","youtubeId":"SVL0xXLKrk0","publishedAt":"2016-01-18T10:35:09.000Z"},
{"guid":"53cfbedd8804","title":"Dans la vallée de la Bouzanne, les châteaux sont accueillants","latlng":"46.622180, 1.629577","youtubeId":"AkxzASChV74","publishedAt":"2016-01-14T14:38:01.000Z"},
{"guid":"be3abe57c7b7","title":"Le Loir, l'autre vallée au charme discret du Centre - Val de Loire","latlng":"47.737726, 0.681441","youtubeId":"-S3MstFTTXg","publishedAt":"2016-01-14T14:37:27.000Z"},
{"guid":"0eff628470d8","title":"À Blois, le doute invite à la visite","latlng":"47.589517, 1.328917","youtubeId":"d_bGp1V2ry8","publishedAt":"2016-01-13T13:45:45.000Z"},
{"guid":"a7ea4197a714","title":"À Orléans, ce marinier à la Loire dans le coeur","latlng":"47.897739, 1.909076","youtubeId":"mWaHy6sF7B0","publishedAt":"2016-01-12T10:09:02.000Z"},
{"guid":"54a31e0141b7","title":"Le Centre-Val De Loire, terre de cathédrales","latlng":"48.447824, 1.487805","youtubeId":"VdFM2-xTLrA","publishedAt":"2016-01-11T12:02:11.000Z"},
{"guid":"4ee3099e6b98","title":"Azay-Le-Rideau, le temps d’une visite","latlng":"47.259055, 0.465685","youtubeId":"bYYQmfj38bI","publishedAt":"2016-01-08T11:28:16.000Z"},
{"guid":"cdf59adfbe7b","title":"La tour Beauvoir, un cachot pour la nuit !","latlng":"47.588430, 1.332184","youtubeId":"Fq33oWgHZu0","publishedAt":"2016-01-07T10:52:28.000Z"},
{"guid":"a5754aad91db","title":"À Beauregard, la châtelaine se démène","latlng":"47.536951, 1.384203","youtubeId":"EVEOA0-arW8","publishedAt":"2016-01-07T10:50:09.000Z"},
{"guid":"a2a529067153","title":"À Blois, la magie opère","latlng":"47.586451, 1.333014","youtubeId":"IkWCGM9jNtk","publishedAt":"2016-01-06T10:57:10.000Z"},
{"guid":"6ef33d97df68","title":"Le Château de Blois, côté coulisses","latlng":"47.585378, 1.330538","youtubeId":"2B9Apo5D7oI","publishedAt":"2016-01-04T11:03:08.000Z"},
{"guid":"7fa11aa46d95","title":"Bergues, un décor de cinéma à ciel ouvert","latlng":"50.968546, 2.433806","youtubeId":"kzN7w18_N4s","publishedAt":"2015-12-18T10:43:13.000Z"},
{"guid":"db5afad12826","title":"Le Beffroi d’Arras, un monument de « beauté écrasante »","latlng":"50.291054, 2.776998","youtubeId":"ekTtSS-LyPU","publishedAt":"2015-12-17T10:29:14.000Z"},
{"guid":"e9558b91de7f","title":"A Lens, une cité minière continue d’écrire son histoire","latlng":"50.435635, 2.801860","youtubeId":"FLbRJ22vPDM","publishedAt":"2015-12-16T10:58:10.000Z"},
{"guid":"7af79d58cda4","title":"À Lens, la fac de sciences est un bijou architectural","latlng":"50.434220, 2.823358","youtubeId":"h4CwowmCv1U","publishedAt":"2015-12-15T13:20:55.000Z"},
{"guid":"5fc12381a1c6","title":"Le Louvre-Lens, un musée capital","latlng":"50.431334, 2.804584","youtubeId":"OlDGBv1jOek","publishedAt":"2015-12-14T10:32:35.000Z"},
{"guid":"b0d83951f775","title":"À Murbach, le charme d'une maison alsacienne","latlng":"47.923544, 7.163902","youtubeId":"sOxwtJcnmyc","publishedAt":"2015-12-11T10:56:55.000Z"},
{"guid":"620a20604439","title":"À Guebwiller, un couvent dans l'air du temps","latlng":"47.907698, 7.214247","youtubeId":"1kgHCIAcFGk","publishedAt":"2015-12-10T10:29:59.000Z"},
{"guid":"ef66d4982b2c","title":"Eguisheim, un village riche de ses labels","latlng":"48.042728, 7.306087","youtubeId":"XQORQJyWUqs","publishedAt":"2015-12-09T10:51:17.000Z"},
{"guid":"cf65c746fd22","title":"À Guebwiller, l'ancienne sous-préfecture est à vendre","latlng":"47.904254, 7.212370","youtubeId":"OMvkibx-2R8","publishedAt":"2015-12-08T10:52:41.000Z"},
{"guid":"476e0ae83357","title":"À Guebwiller, une terre de coteaux d'exception","latlng":"47.912046, 7.205766","youtubeId":"SJ-ecpITXqQ","publishedAt":"2015-12-07T10:55:42.000Z"},
{"guid":"dc628c3b9ffb","title":"Les coulisses de l'accueil à la française...","latlng":"49.241176, 4.051673","youtubeId":"satBUjWMYWc","publishedAt":"2015-12-04T10:53:03.000Z"},
{"guid":"866e0347f77e","title":"Les crayères, la face cachée de Reims","latlng":"49.244752, 4.053097","youtubeId":"TjaYvRX6VSA","publishedAt":"2015-12-03T10:18:11.000Z"},
{"guid":"cd0a1a625a85","title":"La Cité-jardin du Chemin-vert, un village dans la ville","latlng":"49.248309, 4.057704","youtubeId":"BIJK0wWMlIw","publishedAt":"2015-12-02T10:48:32.000Z"},
{"guid":"4a6881970d5a","title":"Les halles du Boulingrin, un marché en béton!","latlng":"49.260173, 4.031306","youtubeId":"QRk5umfxB-w","publishedAt":"2015-12-01T11:13:14.000Z"},
{"guid":"7c532156f928","title":"Reims, un kaléidoscope d'architecture","latlng":"49.252966, 4.035392","youtubeId":"F8XY7IGtf3E","publishedAt":"2015-12-01T11:01:15.000Z"},
{"guid":"085bbda6e3a0","title":"La cathédrale de Reims, un monument royal !","latlng":"49.253859, 4.034031","youtubeId":"c0TfQAzLGm8","publishedAt":"2015-11-30T10:52:59.000Z"},
{"guid":"c2ec880792a2","title":"À Labastide d'Armagnac, un pour tous et tous pour le terroir !","latlng":"43.969654, -0.185703","youtubeId":"6F2aDTFe8co","publishedAt":"2015-11-27T10:43:12.000Z"},
{"guid":"7308c5c78527","title":"Ce dessinateur anglais croque le Sud-Ouest","latlng":"43.759336, -0.574806","youtubeId":"jtPUOSzUsGg","publishedAt":"2015-11-26T10:38:59.000Z"},
{"guid":"172bdb1cd467","title":"En Chalosse, les commerces sont l'affaire de tous","latlng":"43.755400, -0.814330","youtubeId":"k4Td7IpIqb4","publishedAt":"2015-11-25T11:18:43.000Z"},
{"guid":"aa89f74d8000","title":"À Saint-Sever, une tranchée pour l'histoire","latlng":"43.759254, -0.574112","youtubeId":"t6lQJrctcuI","publishedAt":"2015-11-25T11:01:34.000Z"},
{"guid":"4409d5155fbd","title":"Quand Saint-Sever fait l'inventaire de son patrimoine","latlng":"43.759327, -0.574781","youtubeId":"NaNYvf1RI64","publishedAt":"2015-11-24T10:55:51.000Z"},
{"guid":"0bd56ddda637","title":"À Saint-Sever, l'abbatiale se refait une beauté","latlng":"43.759519, -0.574629","youtubeId":"pccENXxKfTQ","publishedAt":"2015-11-23T10:35:41.000Z"},
{"guid":"93db97d45dc5","title":"Les mines de fer, un morceau du patrimoine Lorrain","latlng":"49.492894, 5.873422","youtubeId":"wpE8s4_L4e0","publishedAt":"2015-11-20T10:57:18.000Z"},
{"guid":"526bc5c635c0","title":"L'Abbaye des Prémontrés, \"Le\" monument historique de Pont-à-Mousson","latlng":"48.907464, 6.056309","youtubeId":"LDu6y0hW6j0","publishedAt":"2015-11-20T10:53:18.000Z"},
{"guid":"cee9ace7ae2e","title":"La place Stanislas, le lieu royal de Nancy","latlng":"48.693604, 6.183220","youtubeId":"taVbwN8YvhY","publishedAt":"2015-11-19T10:21:39.000Z"},
{"guid":"9b552c71294a","title":"Le Fort de Fermont, l'ouvrage avant-gardiste de la ligne Maginot","latlng":"49.449408, 5.667801","youtubeId":"GzJToLbuGHE","publishedAt":"2015-11-18T10:57:31.000Z"},
{"guid":"060645f0aec8","title":"À Pont-à-Mousson, le passé s'invite dans le présent","latlng":"48.901636, 6.057015","youtubeId":"NFb-qfs7rdw","publishedAt":"2015-11-17T10:54:13.000Z"},
{"guid":"dd2d876baed3","title":"Aubière, la ville aux 900 caves","latlng":"45.750962, 3.110492","youtubeId":"7lV1xB9hgvc","publishedAt":"2015-11-13T10:56:16.000Z"},
{"guid":"f5eb1d12ad64","title":"En Auvergne, un château en héritage","latlng":"45.640821, 3.499787","youtubeId":"r7gBtfewg6w","publishedAt":"2015-11-12T11:20:45.000Z"},
{"guid":"e0f763d5616a","title":"Montpeyroux, un petit bijou au coeur de l'Auvergne","latlng":"45.621636, 3.205485","youtubeId":"LxSr6OCKFNk","publishedAt":"2015-11-12T10:57:45.000Z"},
{"guid":"f3035816204f","title":"Les volcans d'Auvergne ont leur parc","latlng":"45.813797, 2.942535","youtubeId":"NCy7_ZXAFhc","publishedAt":"2015-11-12T10:49:02.000Z"},
{"guid":"942e48a70a86","title":"À Hauterive, le château partage son potager","latlng":"45.534984, 3.233453","youtubeId":"LXWSFMULQL4","publishedAt":"2015-11-12T10:42:40.000Z"},
{"guid":"3d911d338eda","title":"Les grottes de Perrier, un patrimoine d'exception à préserver","latlng":"45.547019, 3.196805","youtubeId":"rJRXq7_tk3g","publishedAt":"2015-11-10T11:34:00.000Z"},
{"guid":"05b4d2a5a277","title":"Saint-Austremoine, une abbatiale brillante et colorée !","latlng":"45.543553, 3.250005","youtubeId":"btblin48iCE","publishedAt":"2015-11-09T11:27:13.000Z"},
{"guid":"93151db83d87","title":"Les biefs d'Issoire, des canaux à découvrir","latlng":"45.542055, 3.245415","youtubeId":"gN_M14GrGck","publishedAt":"2015-11-09T11:05:34.000Z"},
{"guid":"622f1b1f3c55","title":"À Nantes, une chapelle quatre étoiles","latlng":"47.219896, -1.540933","youtubeId":"6jFHUDmiHj8","publishedAt":"2015-11-06T11:00:25.000Z"},
{"guid":"31fc72e1f06e","title":"À Nantes l'art se vit au quotidien","latlng":"47.214615, -1.546352","youtubeId":"6JFjXfO6E1o","publishedAt":"2015-11-05T11:10:01.000Z"},
{"guid":"82de3189e2df","title":"À Nantes, le patrimoine a le vent en poupe","latlng":"47.205585, -1.574825","youtubeId":"AxQYnybqQcA","publishedAt":"2015-11-04T10:57:21.000Z"},
{"guid":"8372e56699fd","title":"Trentemoult, un mode de vie à part","latlng":"47.195242, -1.582185","youtubeId":"7jA97JQMOJY","publishedAt":"2015-11-03T10:52:03.000Z"},
{"guid":"97d2d2997d82","title":"Le passage Pommeraye, un lieu de vie Nantais","latlng":"47.213597, -1.560217","youtubeId":"739IFUBCGE8","publishedAt":"2015-11-02T10:57:37.000Z"},
{"guid":"b3cc2c2f07a9","title":"À Nérac, une escapade gourmande sur la Baïse","latlng":"44.135450, 0.341511","youtubeId":"_hLfr0Vvos8","publishedAt":"2015-10-23T10:45:40.000Z"},
{"guid":"8cc6a32f1eec","title":"Le Lot-et-Garonne, un choix de vie","latlng":"44.121985, 0.378377","youtubeId":"Em0vylmtxyo","publishedAt":"2015-10-23T10:09:43.000Z"},
{"guid":"fe4d5b97ead8","title":"Au fil de la Baïse, une initiation au voyage","latlng":"44.257397, 0.305203","youtubeId":"p9tf2H7Oe0c","publishedAt":"2015-10-22T09:55:18.000Z"},
{"guid":"12028978e684","title":"Moncrabeau, la capitale des menteurs","latlng":"44.034142, 0.371504","youtubeId":"KGe2wJKcirw","publishedAt":"2015-10-21T09:59:45.000Z"},
{"guid":"4a89bc49f1df","title":"À Poudenas, un château aux airs de villa Toscane","latlng":"44.047065, 0.209634","youtubeId":"ZPCqxq_ozG4","publishedAt":"2015-10-20T09:54:44.000Z"},
{"guid":"1b9e546fa94b","title":"La Baïse, le reflet de Nérac","latlng":"44.136223, 0.341403","youtubeId":"EcjHNN_RzAk","publishedAt":"2015-10-19T10:44:01.000Z"},
{"guid":"57747a6bf409","title":"Chinon, au fil de la Vienne","latlng":"47.168075, 0.235507","youtubeId":"xM9F6ooF3Hc","publishedAt":"2015-10-16T09:58:14.000Z"},
{"guid":"738beadd78bf","title":"Azay-le-Rideau, le temps d'une visite","latlng":"47.259009, 0.465876","youtubeId":"GjUGl317KWQ","publishedAt":"2015-10-15T10:07:16.000Z"},
{"guid":"5cafce6ac70b","title":"Les vignes de Chinon attirent le monde entier","latlng":"47.166391, 0.240159","youtubeId":"l7O9l_8r88I","publishedAt":"2015-10-15T10:04:49.000Z"},
{"guid":"c1832f0cb465","title":"Les fermes troglodytes, le patrimoine caché de la Touraine","latlng":"47.261772, 0.465733","youtubeId":"AOF-8jN5D7k","publishedAt":"2015-10-14T10:14:00.000Z"},
{"guid":"2e57e5034609","title":"Chinon se découvre à travers les souvenirs de ses habitants","latlng":"47.166061, 0.239928","youtubeId":"RGFzxVZhpGQ","publishedAt":"2015-10-13T09:55:06.000Z"},
{"guid":"ccdf15164bd1","title":"Chinon, une ville pleine de saveurs","latlng":"47.166101, 0.239888","youtubeId":"Mr7nK4ABxbs","publishedAt":"2015-10-12T10:32:37.000Z"},
{"guid":"bf9bcb759efc","title":"Doméry-La-Pucelle se souvient de Jeanne D'Arc","latlng":"48.442129, 5.674551","youtubeId":"CdCF_s6S3QQ","publishedAt":"2015-10-09T11:09:30.000Z"},
{"guid":"70412dab805c","title":"Les Vosges, une forêt d'hébergements insolites","latlng":"48.004798, 6.314287","youtubeId":"Z2Qp7PqVcF4","publishedAt":"2015-10-09T11:01:56.000Z"},
{"guid":"5c1845a0c416","title":"Plombières-les-bains, la ville aux milles balcons","latlng":"47.963703, 6.458140","youtubeId":"pQxBZ7cYEZg","publishedAt":"2015-10-08T10:15:52.000Z"},
{"guid":"589baa8ca888","title":"Le fort de Bourlemont cultive son patrimoine","latlng":"48.364006, 5.643957","youtubeId":"TP-XiErxhjI","publishedAt":"2015-10-07T09:33:38.000Z"},
{"guid":"c95b9577fa87","title":"À Vittel, un club de vacances préserve le patrimoine","latlng":"48.206750, 5.940750","youtubeId":"un_nkuO8TS4","publishedAt":"2015-10-06T09:17:11.000Z"},
{"guid":"b92090ac64d6","title":"À Vittel, les maîtres d'hôtel sont des stars","latlng":"48.202812, 5.940918","youtubeId":"H5c64Qo_Hrc","publishedAt":"2015-10-05T10:26:30.000Z"},
{"guid":"ffc1c6ab65d6","title":"Dans le Var, la retraite est plus douce","latlng":"43.237212, 6.309244","youtubeId":"cFBfjghpSXA","publishedAt":"2015-10-02T10:08:37.000Z"},
{"guid":"7c9c4f0c6170","title":"Sur les plages d'Hyères, la détente est au menu","latlng":"43.114727, 6.196658","youtubeId":"0Ih_7M_-_i4","publishedAt":"2015-10-01T10:00:55.000Z"},
{"guid":"93df9ea0116e","title":"Le fort de Brégançon se dévoile au grand public","latlng":"43.093178, 6.322050","youtubeId":"i1wBmXzC1wM","publishedAt":"2015-09-30T10:40:21.000Z"},
{"guid":"bce8a07bcad2","title":"L'histoire se raconte sous l'eau","latlng":"43.119885, 6.131035","youtubeId":"Hy8-QL6SIyA","publishedAt":"2015-09-30T10:34:26.000Z"},
{"guid":"be62d1e8d610","title":"Le château des Costes, un patrimoine fort de sa restauration","latlng":"43.203087, 5.776415","youtubeId":"hRsOfNoSWsg","publishedAt":"2015-09-30T10:28:11.000Z"},
{"guid":"949f91365217","title":"Le village de Seebach, un concentré d'Alsace","latlng":"48.970742, 7.988415","youtubeId":"1yFRVHrbWGo","publishedAt":"2015-09-25T11:00:42.000Z"},
{"guid":"b7d5521bdc2d","title":"En Alsace, une ferme bleue cultive son jardin remarquable","latlng":"48.891928, 7.655779","youtubeId":"B_IGTaB_E3o","publishedAt":"2015-09-24T10:46:39.000Z"},
{"guid":"ffecbbfa67d4","title":"Le charbon de bois, un morceau de patrimoine Alsacien","latlng":"49.046209, 7.773342","youtubeId":"yhjT2IcCnxE","publishedAt":"2015-09-23T11:10:16.000Z"},
{"guid":"c8cfff828d1a","title":"Cleebourg, l'étape oubliée de la route des vins d'Alsace","latlng":"49.012843, 7.894801","youtubeId":"Kt-bz3Mw9P8","publishedAt":"2015-09-22T10:46:26.000Z"},
{"guid":"03772df477cc","title":"Wissembourg, au-delà des clichés","latlng":"49.037015, 7.944498","youtubeId":"CeFkb-QaqFo","publishedAt":"2015-09-21T10:41:10.000Z"},
{"guid":"4e4c8d9ddd00","title":"Le Mont-Saint-Michel, une baie très en vue","latlng":"48.731671, -1.526708","youtubeId":"gpQlPBApsQg","publishedAt":"2015-09-18T09:31:16.000Z"},
{"guid":"1cf5ac132a21","title":"Le Mont-Saint-Michel, la merveille de l'Occident","latlng":"48.635931, -1.511104","youtubeId":"2nF7seEE8gA","publishedAt":"2015-09-17T09:36:47.000Z"},
{"guid":"4f8594bdad16","title":"L'abbaye de la Lucerne, le chantier d'une vie","latlng":"48.791438, -1.467315","youtubeId":"fTtwAMgOaFw","publishedAt":"2015-09-16T09:27:29.000Z"},
{"guid":"8c5f7a7062be","title":"Un agent portuaire au-delà des clichés","latlng":"48.835104, -1.597499","youtubeId":"1dC9SRW5Fs4","publishedAt":"2015-09-15T09:18:10.000Z"},
{"guid":"83533ad46339","title":"Granville se croque à l'infini","latlng":"48.837595, -1.597488","youtubeId":"JG93-_SqbeY","publishedAt":"2015-09-14T10:21:31.000Z"},
{"guid":"48ada3a2af9a","title":"Le Pont du Gard, la passion d'une vie","latlng":"43.947466, 4.535132","youtubeId":"MDIpwE_RIXE","publishedAt":"2015-09-11T09:18:07.000Z"},
{"guid":"bd309aef20be","title":"Aigues-Mortes, une cité où il fait bon s'amarrer","latlng":"43.566756, 4.190080","youtubeId":"T5lu_fmTjww","publishedAt":"2015-09-10T09:52:53.000Z"},
{"guid":"30445e3a6633","title":"À Saint-Gilles, le patrimoine fleurit","latlng":"43.677236, 4.429551","youtubeId":"sNDTzRAp4bA","publishedAt":"2015-09-09T10:30:58.000Z"},
{"guid":"f5d642114cf0","title":"Port-Camargue, la vie au bord de l'eau","latlng":"43.520706, 4.126784","youtubeId":"gLpsxIl2tT8","publishedAt":"2015-09-08T09:49:45.000Z"},
{"guid":"c14d32404cae","title":"Au Grau-du-Roi, la pêche c'est sa vie","latlng":"43.534751, 4.134282","youtubeId":"c05sVm_fmMo","publishedAt":"2015-09-07T10:02:36.000Z"},
{"guid":"949737fa924d","title":"Coup de coeur pour cette maison d'armateur","latlng":"49.759895, 0.367761","youtubeId":"FsdHF7-_XKo","publishedAt":"2015-09-04T12:35:44.000Z"},
{"guid":"fa7cb18776eb","title":"À Yport, l'âme des marins résonne encore","latlng":"49.739751, 0.309181","youtubeId":"vj5uaGjnh4o","publishedAt":"2015-09-03T11:12:21.000Z"},
{"guid":"8bd15a85699d","title":"Le Manoir du Catel fouille son histoire","latlng":"49.625124, 0.687617","youtubeId":"SugDs0OJuCc","publishedAt":"2015-09-02T10:35:17.000Z"},
{"guid":"685d6304c06e","title":"Le Palais Bénédictine a changé sa vie","latlng":"49.758880, 0.367962","youtubeId":"93OAr0WAyuk","publishedAt":"2015-09-01T10:54:16.000Z"},
{"guid":"de81165e8d9b","title":"Fécamp dans les yeux d'un marin","latlng":"49.760923, 0.371095","youtubeId":"I_IxbqcTikQ","publishedAt":"2015-08-31T12:43:57.000Z"},
{"guid":"40c1bfe3975a","title":"Le Pays-Basque, entre Pyrénées et Atlantique","latlng":"43.324974, -1.600474","youtubeId":"Du8IcMdog94","publishedAt":"2015-06-19T09:19:02.000Z"},
{"guid":"d976de578f35","title":"Ainhoa, un village aux couleurs basques","latlng":"43.306928, -1.498789","youtubeId":"kf728TwBvKs","publishedAt":"2015-06-18T10:22:17.000Z"},
{"guid":"43f13ef4d789","title":"Guéthary, l'appel du grand large","latlng":"43.421681, -1.609037","youtubeId":"HfuDqy3WsQU","publishedAt":"2015-06-17T10:17:53.000Z"},
{"guid":"242fa17ee218","title":"Espelette, un village plein de piment","latlng":"43.340525, -1.447734","youtubeId":"0bAA42UpzWY","publishedAt":"2015-06-17T10:06:42.000Z"},
{"guid":"e2bd59695f7f","title":"Abbadia, un château de conte de fée","latlng":"43.377485, -1.749367","youtubeId":"WrqsWDE9_mw","publishedAt":"2015-06-16T09:16:37.000Z"},
{"guid":"db2b08bf385e","title":"Hendaye, une ville belle et Basque","latlng":"43.358516, -1.774579","youtubeId":"AOpxfVHkda8","publishedAt":"2015-06-15T10:50:55.000Z"},
{"guid":"eecc7329f350","title":"Le château de la Roche-Courbon, un concentré d'humanité","latlng":"45.835392, -0.781199","youtubeId":"F0gnjZKJcRQ","publishedAt":"2015-06-12T09:15:34.000Z"},
{"guid":"8c0e44f47f60","title":"L'île d'Oléron le temps d'une balade à bicyclette","latlng":"45.951871, -1.273616","youtubeId":"sVYX03GMKAM","publishedAt":"2015-06-11T09:17:37.000Z"},
{"guid":"0e388f1be383","title":"Au château Saint-Jean-d'Angle, le moyen-âge est à la page","latlng":"45.820585, -0.950860","youtubeId":"whllLZZiONo","publishedAt":"2015-06-10T09:19:50.000Z"},
{"guid":"bba8d0c75322","title":"Le train des mouettes, un voyage à vapeur dans le temps","latlng":"45.670292, -0.942817","youtubeId":"WKgdtFnlvI4","publishedAt":"2015-06-09T09:39:22.000Z"},
{"guid":"3e0c08076e14","title":"La forêt de la Coubre, un patrimoine à préserver","latlng":"45.738365, -1.211603","youtubeId":"RgHtCfnYmus","publishedAt":"2015-06-09T09:23:18.000Z"},
{"guid":"c6cd985e6315","title":"Marennes, la cité de l'or blanc","latlng":"45.810343, -1.119613","youtubeId":"NXBrZyboKfo","publishedAt":"2015-06-08T10:30:09.000Z"},
{"guid":"7af1d4d07332","title":"Le château de Fontaine-Henry, une vocation pour la vie","latlng":"49.274441, -0.450008","youtubeId":"axcNEna-OrE","publishedAt":"2015-06-05T09:17:01.000Z"},
{"guid":"66082721f240","title":"Le château de Canon, une mosaïque de jardins","latlng":"49.078462, -0.094574","youtubeId":"fJ6QEqEWWIs","publishedAt":"2015-06-04T10:24:36.000Z"},
{"guid":"a2434d6fcc56","title":"Lion-sur-Mer, un littoral au fil de ses villas","latlng":"49.305049, -0.319536","youtubeId":"81uOh3042lw","publishedAt":"2015-06-03T10:21:30.000Z"},
{"guid":"6641ee258e07","title":"Cabourg, la cité du romantisme","latlng":"49.292628, -0.115686","youtubeId":"jnaVZfG7tm4","publishedAt":"2015-06-02T15:30:01.000Z"},
{"guid":"328680a7ffa8","title":"À Tournon-sur-Rhône, un jardin dévoile ses secrets","latlng":"45.068316, 4.829005","youtubeId":"USWQbsDV9pE","publishedAt":"2015-05-29T10:53:35.000Z"},
{"guid":"ed94d3ed1f32","title":"Tout l'Ardèche en un clin d'oeil","latlng":"44.875421, 4.844344","youtubeId":"pEI68mVfTsQ","publishedAt":"2015-05-28T11:04:39.000Z"},
{"guid":"4dcab161d314","title":"Tournon-sur-Rhône, des trésors insoupçonnés","latlng":"45.068602, 4.830301","youtubeId":"wBku4ysHPqo","publishedAt":"2015-05-27T11:21:32.000Z"},
{"guid":"5b64d70a3b70","title":"Saint-Péray cultive son patrimoine","latlng":"44.943091, 4.847735","youtubeId":"vzGX263TwwU","publishedAt":"2015-05-27T11:12:02.000Z"},
{"guid":"65498bb874ed","title":"Saint-Donat-sur-L'Herbasse, simplement authentique","latlng":"45.122274, 4.982552","youtubeId":"wxwUjEa_HuM","publishedAt":"2015-05-27T11:05:31.000Z"},
{"guid":"3246de3fc6e6","title":"Lamastre, un village typiquement Ardéchois","latlng":"44.985213, 4.579738","youtubeId":"FNgQhPl51Sw","publishedAt":"2015-05-27T10:11:21.000Z"},
{"guid":"97f85348a2bf","title":"Le train de l'Ardèche au fil des gorges du Doux","latlng":"45.067787, 4.788321","youtubeId":"1OOWSF_QwJA","publishedAt":"2015-05-27T10:10:04.000Z"},
{"guid":"3efbdea07a13","title":"Un pour tous, tous pour Gardères","latlng":"43.280405, -0.111416","youtubeId":"i1b5G3Olt_A","publishedAt":"2015-05-22T16:33:46.000Z"},
{"guid":"e3698eb3817a","title":"Lourdes, au-delà du pèlerinage","latlng":"43.096615, -0.046395","youtubeId":"oAMWS4_JyiM","publishedAt":"2015-05-22T16:30:18.000Z"},
{"guid":"25aee863f6e7","title":"Le village d'Arreau, dans le coeur de ses habitants","latlng":"42.904133, 0.359915","youtubeId":"TESPfAmDOwg","publishedAt":"2015-05-20T10:25:43.000Z"},
{"guid":"8130e68dc220","title":"Le jardin Massey, le poumon vert de Tarbes","latlng":"43.239009, 0.075334","youtubeId":"GrlHtbvQtsw","publishedAt":"2015-05-19T10:11:53.000Z"},
{"guid":"692db4beba93","title":"Bétharram, voyage dans les entrailles des Pyrénées","latlng":"43.101760, -0.186945","youtubeId":"9fqJ1rsarHI","publishedAt":"2015-05-19T10:11:38.000Z"},
{"guid":"8ee3aade46b3","title":"Tarbes, capitale de la Bigorre","latlng":"43.233139, 0.077830","youtubeId":"MY1aOURkXLo","publishedAt":"2015-05-18T11:21:33.000Z"},
{"guid":"81ec6edba7d8","title":"Roscoff, une perle du Finistère entre terre et mer","latlng":"48.726442, -3.985128","youtubeId":"X8yQWFGj120","publishedAt":"2015-05-15T14:54:29.000Z"},
{"guid":"4d4f001f9c97","title":"Balade à Cléder, entre littoral et patrimoine","latlng":"48.662842, -4.103472","youtubeId":"9-gHPuOCIjg","publishedAt":"2015-05-15T14:47:57.000Z"},
{"guid":"92ea47a0af2b","title":"Roscoff dans l'objectif d'un photographe","latlng":"48.724184, -3.984159","youtubeId":"gCboES1eRTU","publishedAt":"2015-05-15T14:41:46.000Z"},
{"guid":"1a2e03f5b87a","title":"Saint-Pol-de-Léon, une ville sainte et pittoresque","latlng":"48.685722, -3.986852","youtubeId":"-HhtbzaqHKU","publishedAt":"2015-05-15T14:35:54.000Z"},
{"guid":"a182249c8f77","title":"Les légendes bretonnes ont la cote","latlng":"48.560825, -4.335541","youtubeId":"ajbRiHRzGcs","publishedAt":"2015-05-12T11:01:59.000Z"},
{"guid":"3934f3d0b31c","title":"Les enclos paroissiaux, un patrimoine religieux d'exception","latlng":"48.520214, -3.946476","youtubeId":"qhndX4a5LvQ","publishedAt":"2015-05-12T10:59:03.000Z"},
{"guid":"e11b4ce0862e","title":"Ripaille, le château des Ducs de Savoie","latlng":"46.387875, 6.486386","youtubeId":"fiDCZAugAJI","publishedAt":"2015-05-11T10:48:31.000Z"},
{"guid":"50eae576f2f6","title":"Yvoire, la perle du Léman","latlng":"46.371101, 6.325708","youtubeId":"eOLecrfNrR8","publishedAt":"2015-05-07T12:55:30.000Z"},
{"guid":"e8d445efa6c0","title":"Dans la vallée d'Aulps, le diable a son pont","latlng":"46.192530, 6.686429","youtubeId":"ElqoPOrXbwg","publishedAt":"2015-05-06T10:14:32.000Z"},
{"guid":"39bdab169756","title":"Le patrimoine Savoyard, une histoire de traditions","latlng":"46.312671, 6.490890","youtubeId":"qtm8bCmguME","publishedAt":"2015-05-06T10:12:35.000Z"},
{"guid":"ba0575c87f1d","title":"L'abbaye d'Aulps, un joyau Cistercien","latlng":"46.241597, 6.649882","youtubeId":"xj2lcZeEQdU","publishedAt":"2015-05-06T10:12:04.000Z"},
{"guid":"acddd7ee0bd2","title":"Thonon-les-Bains, un belvédère sur le Léman","latlng":"46.372735, 6.478849","youtubeId":"eq4Q8DsiA4o","publishedAt":"2015-05-05T15:30:53.000Z"},
{"guid":"bba47bb8acaf","title":"Le Léman, ce lac a la pêche","latlng":"46.442247, 6.494833","youtubeId":"kbne8fEwL5Y","publishedAt":"2015-05-05T15:27:46.000Z"},
{"guid":"2f3b9cdc9b86","title":"Thonon-les-Bains, une histoire d'eau","latlng":"46.376042, 6.475218","youtubeId":"dL10eMJrVkI","publishedAt":"2015-05-05T15:26:32.000Z"},
{"guid":"a2bb39234bcf","title":"L'étonnante église de Haute-Isle","latlng":"49.083537, 1.659321","youtubeId":"G2iM8MlN0aY","publishedAt":"2015-04-22T14:16:45.000Z"},
{"guid":"3caaa1e7cbf2","title":"La Roche-Guyon, un des plus beaux villages de France","latlng":"49.081057, 1.629492","youtubeId":"pVaT5MpQfL8","publishedAt":"2015-04-22T14:16:42.000Z"},
{"guid":"fa8681afd81e","title":"Auvers-sur-Oise, ville impressionniste","latlng":"49.070715, 2.171610","youtubeId":"1x-3Msy0pTg","publishedAt":"2015-04-21T12:13:30.000Z"},
{"guid":"349177c3d640","title":"Dans les coulisses du châteaux de Villarceaux","latlng":"49.118161, 1.711251","youtubeId":"1KLxF9OdxJM","publishedAt":"2015-04-21T12:05:39.000Z"},
{"guid":"b07237ed0661","title":"Tourrettes-sur-Loup, une cité médiévale haut perchée","latlng":"43.715750, 7.058645","youtubeId":"tqOpdF-rN2c","publishedAt":"2015-04-15T10:37:50.000Z"},
{"guid":"5311590f754c","title":"À Auray, un artiste en \"croque\" pour son quotidien","latlng":"47.666036, -2.979115","youtubeId":"7x2t4GeCjTg","publishedAt":"2015-04-10T10:20:40.000Z"},
{"guid":"4728a3754dd9","title":"L'île de Saint-Cado, une offrande de la nature","latlng":"47.686731, -3.184968","youtubeId":"nJ83K01u478","publishedAt":"2015-04-07T14:01:38.000Z"},
{"guid":"f636a49e33a0","title":"Entre Carnac et Quiberon, la Bretagne sauvage","latlng":"47.571317, -3.129369","youtubeId":"Pjk4i36eLVI","publishedAt":"2015-04-07T14:00:35.000Z"},
{"guid":"1c0ad68032b6","title":"Carnac, une vie entre terre et mer","latlng":"47.583358, -3.079460","youtubeId":"7Ch1JtrfilE","publishedAt":"2015-04-07T12:04:04.000Z"},
{"guid":"c9378d95cb61","title":"La Saire, un trait d'union entre terre et mer","latlng":"49.621382, -1.360097","youtubeId":"9k0VNtETB9w","publishedAt":"2015-03-27T14:18:05.000Z"},
{"guid":"10a16322e92f","title":"Cosqueville, point de départ d'une balade sur le littoral","latlng":"49.694168, -1.409319","youtubeId":"v34VvkIV02Q","publishedAt":"2015-03-26T15:14:24.000Z"},
{"guid":"2777bf493239","title":"Jacques Prévert, le poête amoureux de la Hague","latlng":"49.695626, -1.884197","youtubeId":"tRzG_Y1Na9k","publishedAt":"2015-03-25T13:34:15.000Z"},
{"guid":"5f1e20b5a5f1","title":"Saint-Vaast-La-Hougue, fort de ses délices","latlng":"49.587529, -1.266217","youtubeId":"rCzIWCoXTZs","publishedAt":"2015-03-25T13:33:07.000Z"},
{"guid":"3c8dc03d58de","title":"À Carneville, l'incroyable destin d'un jeune châtelain","latlng":"49.660510, -1.444444","youtubeId":"t536yqXSuiw","publishedAt":"2015-03-24T13:47:22.000Z"},
{"guid":"1847f0f58df3","title":"Les rues de Barfleur","latlng":"49.669217, -1.266773","youtubeId":"_5aeVHH7-vY","publishedAt":"2015-03-24T13:46:06.000Z"},
{"guid":"b2b428652a90","title":"À Gatteville, les femmes veillent sur la mer","latlng":"49.696511, -1.265813","youtubeId":"5reHAVipajQ","publishedAt":"2015-03-24T13:41:14.000Z"},
{"guid":"b4fdfe6bc5c4","title":"Un bunker pour résidence secondaire","latlng":"49.686832, -1.282590","youtubeId":"CtkuinZvasI","publishedAt":"2015-03-24T13:40:11.000Z"},
{"guid":"d836e19cd483","title":"Barfleur, une ville au rythme des marées","latlng":"49.670398, -1.261001","youtubeId":"SJ4zOYdtJ_E","publishedAt":"2015-03-23T15:14:09.000Z"},
{"guid":"605b839148d0","title":"Balade dans les Causses","latlng":"44.576470, 1.832967","youtubeId":"67lMEdM5j4U","publishedAt":"2015-03-20T14:16:33.000Z"},
{"guid":"4d9254c4198f","title":"Cardaillac, un village authentique du Lot","latlng":"44.679666, 1.995057","youtubeId":"lTZK9iw8U88","publishedAt":"2015-03-19T14:00:04.000Z"},
{"guid":"2cc4db40c1d0","title":"Cabrerets, un village troglodyte du Lot","latlng":"44.505581, 1.655920","youtubeId":"nJaf1DpvOuY","publishedAt":"2015-03-18T13:51:03.000Z"},
{"guid":"63b1716012ad","title":"Saint-Cirq-Lapopie, un village haut perché","latlng":"44.464577, 1.669894","youtubeId":"D0DdYsrrwBs","publishedAt":"2015-03-18T13:47:29.000Z"},
{"guid":"7387932577ae","title":"Autoire, un village d'histoire au pied des falaises","latlng":"44.853694, 1.820356","youtubeId":"QzLaKJocSpY","publishedAt":"2015-03-17T14:20:19.000Z"},
{"guid":"293f13ff5ceb","title":"Lacave, un confluent de la Dordogne et de l'Ouysse","latlng":"44.844351, 1.557128","youtubeId":"7KVFaChlwzc","publishedAt":"2015-03-17T14:19:24.000Z"},
{"guid":"347a01fcd0b8","title":"Figeac, un bijou médiéval au coeur du Lot","latlng":"44.609357, 2.033436","youtubeId":"K5df9cyOJPw","publishedAt":"2015-03-16T16:03:45.000Z"},
{"guid":"ff9b7005c678","title":"En Auvergne, la préhistoire est toujours présente","latlng":"45.157224, 3.437350","youtubeId":"bJsRhoLAjuE","publishedAt":"2015-03-13T14:03:37.000Z"},
{"guid":"36611a4809e6","title":"Lafayette, le plus célèbre des Auvergnats","latlng":"45.158899, 3.580336","youtubeId":"NNujbEQ0h0Y","publishedAt":"2015-03-13T14:02:20.000Z"},
{"guid":"2c0f0b2b9a99","title":"En Auvergne, le chemin de Compostelle a ses anges gardiens","latlng":"45.043617, 3.884122","youtubeId":"KuEIiVQY9iU","publishedAt":"2015-03-12T14:42:05.000Z"},
{"guid":"46d077e8092b","title":"Le Puy-en-Velay, ville départ pour Saint-Jacques-de-Compostelle","latlng":"45.043617, 3.884122","youtubeId":"UUb-N_rJ3p8","publishedAt":"2015-03-11T11:17:50.000Z"},
{"guid":"d37769a749ef","title":"À Aiguilhe, la chapelle Saint-Michel est à la pointe","latlng":"45.050069, 3.882541","youtubeId":"UPT_HcxQuGA","publishedAt":"2015-03-10T13:24:31.000Z"},
{"guid":"3bc31421bc9f","title":"Polignac, une forteresse légendaire","latlng":"45.068915, 3.860229","youtubeId":"Q_FGVJS8b2I","publishedAt":"2015-03-10T11:32:10.000Z"},
{"guid":"8bdb2dfe5d9e","title":"Le Puy-en-Velay, une ville haute en couleurs","latlng":"45.045559, 3.884299","youtubeId":"fw1v9mJHpvQ","publishedAt":"2015-03-09T14:16:46.000Z"},
{"guid":"7a8bc37bc290","title":"La baie du Mont Saint-Michel, une terre d'élevage iodée","latlng":"48.633393, -1.520778","youtubeId":"GzBBIzDX470","publishedAt":"2015-02-27T17:07:27.000Z"},
{"guid":"2fa75949607a","title":"La vallée de la Durdent, un patrimoine fluvial agricole","latlng":"49.783742, 0.638296","youtubeId":"WxwoRPg1fOM","publishedAt":"2015-02-27T16:59:41.000Z"},
{"guid":"e8fc1ed2ea55","title":"Au château d'Oléron, on cultive l'huitre","latlng":"45.884735, -1.189432","youtubeId":"NbPEa_BtYrU","publishedAt":"2015-02-26T16:30:23.000Z"},
{"guid":"f70062771d16","title":"Les meulières, un patrimoine oublié du Périgord","latlng":"45.418254, 0.600949","youtubeId":"FRSDo3xoMbM","publishedAt":"2015-02-26T16:16:44.000Z"},
{"guid":"9e8b29baf58a","title":"Les gorges de la Truyère, une terre sauvage et authentique","latlng":"44.776985, 2.700218","youtubeId":"M9VPoBO0_1w","publishedAt":"2015-02-25T16:51:20.000Z"},
{"guid":"48c6aca14733","title":"Les mazots, un patrimoine agricole reconverti","latlng":"45.954729, 6.905090","youtubeId":"I1VPkqPeTO8","publishedAt":"2015-02-25T16:30:04.000Z"},
{"guid":"b9682e463916","title":"La route des vins d'Alsace, un patrimoine viticole","latlng":"48.462221, 7.481268","youtubeId":"JKcTDdrGJNM","publishedAt":"2015-02-25T16:10:05.000Z"},
{"guid":"982f4de686b2","title":"Balade au pays des houblons d'Alsace","latlng":"48.720876, 7.633394","youtubeId":"Y3iUK6nrv2c","publishedAt":"2015-02-25T15:28:44.000Z"},
{"guid":"a1eab39a74b7","title":"L'Île de Bréhat, un bouquet de fleurs et de homards","latlng":"48.845361, -2.999669","youtubeId":"VlRwKq2yUe8","publishedAt":"2015-02-23T17:16:14.000Z"},
{"guid":"620b42d656ed","title":"Trémargat, la vie agricole au coeur de la solidarité","latlng":"48.332226, -3.267369","youtubeId":"45S0mOmd8yQ","publishedAt":"2015-02-23T17:09:00.000Z"},
{"guid":"3a39b26828b4","title":"Val Thorens, au rythme de l'après-ski","latlng":"45.298310, 6.582242","youtubeId":"eVfL25marps","publishedAt":"2015-02-13T13:47:31.000Z"},
{"guid":"e66ddc08fad4","title":"Pralognan, un écrin au pied de la Vanoise","latlng":"45.381863, 6.721346","youtubeId":"Of5ekZYABfk","publishedAt":"2015-02-12T16:01:00.000Z"},
{"guid":"fba023c16828","title":"Saint-Martin-de-Belleville","latlng":"45.379964, 6.504734","youtubeId":"PNOZJQ6pr7U","publishedAt":"2015-02-12T15:58:16.000Z"},
{"guid":"bb061d3be4ce","title":"Simon Beck, un artiste haut en relief","latlng":"45.443443, 6.976555","youtubeId":"Ck5ZdVmqkWE","publishedAt":"2015-02-11T14:22:59.000Z"},
{"guid":"ac8e37f67f2d","title":"L'humble histoire d'Autun","latlng":"46.950751, 4.298955","youtubeId":"VUaezCTo_gY","publishedAt":"2015-02-11T11:30:31.000Z"},
{"guid":"02bb71577e22","title":"Autun, la petite Rome de Bourgogne","latlng":"46.952537, 4.310112","youtubeId":"-SP1TucY7K4","publishedAt":"2015-02-11T11:23:22.000Z"},
{"guid":"9dca2b7f95fb","title":"La Boulaye ne boude pas son patrimoine insolite","latlng":"46.746146, 4.127054","youtubeId":"v-U1Yc4IPAI","publishedAt":"2015-02-11T11:18:54.000Z"},
{"guid":"1fd1fb11900e","title":"En Bourgogne, le quotidien ordinaire d'un château extraordinaire","latlng":"46.805840, 4.751767","youtubeId":"ONas7LATPUI","publishedAt":"2015-02-11T11:16:06.000Z"},
{"guid":"ff16c7158f33","title":"Le Morvan, un petit coin de paradis","latlng":"46.832967, 4.117006","youtubeId":"Z7d9B7-PQiU","publishedAt":"2015-02-11T11:10:22.000Z"},
{"guid":"b0afec97237d","title":"Le château de Couches, au rythme de la passion","latlng":"46.862497, 4.586076","youtubeId":"B3nkVUhAxr4","publishedAt":"2015-02-11T11:07:33.000Z"},
{"guid":"aecd33d9cd55","title":"La mer de glace, une offrande de la nature","latlng":"45.924126, 6.868454","youtubeId":"oSaidSdyHtE","publishedAt":"2015-02-11T10:58:27.000Z"},
{"guid":"86c918dbb52f","title":"Chamonix Mont-Blanc, une ville cosmopolite","latlng":"45.923259, 6.868105","youtubeId":"m6QSZ04Nlek","publishedAt":"2015-02-11T10:53:04.000Z"},
{"guid":"bb08bf481464","title":"La face cachée de Chamonix-Mont-Blanc","latlng":"45.923117, 6.867912","youtubeId":"2Ty0Q81FpsE","publishedAt":"2015-02-11T10:45:18.000Z"},
{"guid":"4f98c8ecf34d","title":"L'abbaye d'Aulps, majestueux vestige savoyard","latlng":"46.241612, 6.649860","youtubeId":"3h6tKAFzkks","publishedAt":"2015-02-11T10:43:03.000Z"},
{"guid":"d05cf277f274","title":"Chamonix-Mont-Blanc, une architecture aux faces multiples","latlng":"45.923162, 6.867880","youtubeId":"JMM-pfiGK6o","publishedAt":"2015-02-11T10:38:58.000Z"},
{"guid":"288cf6dc45af","title":"Châteauroux, l'âme du Berry","latlng":"46.811177, 1.691417","youtubeId":"MAYkqhXo6l4","publishedAt":"2015-02-11T10:32:17.000Z"},
{"guid":"0f1c3934d080","title":"Saint-Benoît-du-Sault, un village médiéval Berrichon","latlng":"46.440345, 1.390214","youtubeId":"9OyCgvUdi5E","publishedAt":"2015-02-11T10:24:13.000Z"},
{"guid":"a6bc46242957","title":"Lys-Saint-Georges, un concentré de Berry","latlng":"46.641917, 1.823179","youtubeId":"8m0SATUIb-s","publishedAt":"2015-02-11T10:19:53.000Z"},
{"guid":"a0aeaa23d93e","title":"Châteauroux, riche de son patrimoine médiéval","latlng":"46.812604, 1.685750","youtubeId":"DalQGEr4sQA","publishedAt":"2015-02-11T10:16:37.000Z"},
{"guid":"7b7272c0f076","title":"Dans la vallée de la Bouzanne, les châteaux sont rois","latlng":"46.810145, 1.698838","youtubeId":"MUGVyA7c_Bo","publishedAt":"2015-02-11T10:03:10.000Z"},
{"guid":"b64571cd263b","title":"George Sand, une enfant du Berry romantique","latlng":"46.600370, 1.906463","youtubeId":"p9RN0xOmHng","publishedAt":"2015-02-11T09:51:41.000Z"},
{"guid":"aea94d22a0a9","title":"Villard-de-Lans, un belvédère sur le Vercors","latlng":"45.070629, 5.552011","youtubeId":"NYASYn5Cy-c","publishedAt":"2015-02-11T09:43:03.000Z"},
{"guid":"53d6b62705d2","title":"À Villard-de-Lans, les petits commerces tissent du lien","latlng":"45.070311, 5.554339","youtubeId":"fvV03vEPYBE","publishedAt":"2015-02-11T09:35:16.000Z"},
{"guid":"1e5961d82329","title":"Les gorges de la Bourne, un canyon au coeur du Vercors","latlng":"45.071427, 5.497945","youtubeId":"jzThLnsNQbs","publishedAt":"2015-02-10T16:26:50.000Z"},
{"guid":"6c89228ab128","title":"Un grand bol d'air dans le Vercors","latlng":"45.072555, 5.552016","youtubeId":"DtBQA1PpJFU","publishedAt":"2015-02-10T16:21:21.000Z"},
{"guid":"18b0ec5d04c0","title":"Villard-de-Lans, un village bâti pour les enfants","latlng":"45.070759, 5.552048","youtubeId":"krvHeFR-EkI","publishedAt":"2015-02-10T15:58:08.000Z"},
{"guid":"cb875f500c5e","title":"Pont-en-Royans, un bout de Toscane au coeur du Vercors","latlng":"45.060757, 5.346115","youtubeId":"wkIGM9uwCwk","publishedAt":"2015-02-10T15:55:59.000Z"},
{"guid":"1e9d18dd2562","title":"Ô Toulouse de Claude Nougaro","latlng":"43.603206, 1.362100","youtubeId":"9arj27XnEaA","publishedAt":"2015-02-10T15:49:31.000Z"},
{"guid":"e2f300b236ec","title":"Toulouse, la vie en rose","latlng":"43.604568, 1.444954","youtubeId":"WuoAQV4dg3g","publishedAt":"2015-02-10T15:42:47.000Z"},
{"guid":"219954da1aea","title":"Val Thorens, les bâtisseurs du premier jour","latlng":"45.298325, 6.582156","youtubeId":"qyIIWrWlCLI","publishedAt":"2015-02-10T15:39:35.000Z"},
{"guid":"a3e4cb5f89e8","title":"Au coeur des 3 vallées, le précieux héritage d'un chalet d'alpage","latlng":"45.298271, 6.582052","youtubeId":"d5cAROCodJ4","publishedAt":"2015-02-10T15:35:45.000Z"},
{"guid":"e9a31bfaa1b3","title":"Saint-Sulpice-sur-Lèze, un village dans le coeur des hommes","latlng":"43.328101, 1.322391","youtubeId":"2O-AaBJ_osE","publishedAt":"2015-02-10T15:19:24.000Z"},
{"guid":"749cef8422cc","title":"Quand le canal du Midi prend ses quartiers d'hiver","latlng":"43.317322, 1.952821","youtubeId":"9-8j5TDJ9UE","publishedAt":"2015-02-10T15:04:47.000Z"},
{"guid":"fd8d8a2892f1","title":"À Toulouse, les monuments retrouvent une seconde vie !","latlng":"43.600742, 1.429328","youtubeId":"Dt5dfY1zmhk","publishedAt":"2015-02-09T17:03:05.000Z"},
{"guid":"2f90f84dcc2b","title":"Toulouse Rive-Gauche, un autre visage de la ville","latlng":"43.592098, 1.419138","youtubeId":"r3Cmpht1ZsQ","publishedAt":"2015-02-06T17:20:07.000Z"},
{"guid":"c0c904899de8","title":"Le Vercors tire son authenticité de son passé","latlng":"45.127267, 5.527105","youtubeId":"GavvYn_wjis","publishedAt":"2015-01-30T11:02:11.000Z"},
{"guid":"4aefb823c5a7","title":"À Chamonix, l'architecture s'écrit au présent","latlng":"46.033367, 6.931607","youtubeId":"oJlfVV7wqG0","publishedAt":"2015-01-20T11:26:13.000Z"},
{"guid":"ca6a2bec9f18","title":"À Chamonix, les vieux chalets retrouvent une seconde vie","latlng":"45.954695, 6.904799","youtubeId":"McHse7cRfWo","publishedAt":"2015-01-20T11:24:26.000Z"},
{"guid":"f865852af862","title":"À Châteauneuf-du-Pape, l'épicier est la star !","latlng":"44.056172, 4.831071","youtubeId":"aDllS0U1fS4","publishedAt":"2014-09-30T13:35:31.000Z"},
{"guid":"aabe95f9b5f7","title":"Châteauneuf-du-Pape, un terroir au coeur de l'histoire","latlng":"44.056071, 4.835111","youtubeId":"kVTZDXPRlBM","publishedAt":"2014-09-30T13:35:14.000Z"},
{"guid":"e3643f073d91","title":"Port-Saint-Louis-du-Rhône, la porte d'entrée de la Camargue","latlng":"43.390744, 4.803936","youtubeId":"jkFdwjQ_63s","publishedAt":"2014-09-30T13:33:03.000Z"},
{"guid":"2ba5efd69df5","title":"Marignane, une ville authentique entre deux étangs","latlng":"43.416043, 5.214836","youtubeId":"XeVb6RfC6u4","publishedAt":"2014-09-30T13:32:12.000Z"},
{"guid":"1f415f631723","title":"Wimereux, la perle de la Côte d'Opale","latlng":"50.769945, 1.611315","youtubeId":"Q6J-rX0Cw54","publishedAt":"2014-09-30T13:30:18.000Z"},
{"guid":"9d484b4d945b","title":"La grotte de Saint-Cézaire, une merveille sculptée par les eaux","latlng":"43.658045, 6.812167","youtubeId":"Tv2hMbhrt9U","publishedAt":"2014-09-30T13:25:43.000Z"},
{"guid":"b5d16e9eede9","title":"Ces commerçants sont tombés sous le charme du Cannet","latlng":"43.576491, 7.018988","youtubeId":"ygr-kc7iUS0","publishedAt":"2014-09-30T13:25:20.000Z"},
{"guid":"0e8cc99c4d08","title":"De Paimpol à Pontrieux à pleine vapeur !","latlng":"48.777020, -3.045949","youtubeId":"P9mCYnHNYnI","publishedAt":"2014-09-30T13:20:17.000Z"},
{"guid":"80e7a27362e0","title":"Entre cabanes perchées et cidrerie, un avant-goût de Bretagne","latlng":"48.686519, -2.988957","youtubeId":"fGdQqB99GcI","publishedAt":"2014-09-30T13:19:28.000Z"},
{"guid":"e8f118c1a904","title":"Le Mont Saint Michel, la merveille de la Normandie","latlng":"48.636030, -1.511851","youtubeId":"LDqEk748AuY","publishedAt":"2014-09-29T16:29:39.000Z"},
{"guid":"be87f68165d8","title":"Sainte-Marie-de-Ré, entre terre et océan","latlng":"46.152373, -1.312381","youtubeId":"64_uK0YGvb4","publishedAt":"2014-06-20T14:37:51.000Z"},
{"guid":"16a1db332823","title":"Ars-en-Ré, un village aux mille richesses architecturales","latlng":"46.207645, -1.515659","youtubeId":"AzVzgyEt9-k","publishedAt":"2014-06-19T14:23:09.000Z"},
{"guid":"0d58d6db37c5","title":"Saint-Martin-de-Ré, la \"capitale\" fortifiée de l'Île-de-Ré","latlng":"46.205551, -1.368003","youtubeId":"w_Hb3KsiaLg","publishedAt":"2014-06-16T16:39:17.000Z"},
{"guid":"0fc2e0b4c9ad","title":"Le patrimoine religieux, une richesse de Vence","latlng":"43.722700, 7.113934","youtubeId":"eLTJMOBjzeg","publishedAt":"2014-06-13T12:11:00.000Z"},
{"guid":"34274a3ee8fd","title":"Coursegoules, un belvédère sur la méditerranée","latlng":"43.794796, 7.039998","youtubeId":"mH3_gr5C5KI","publishedAt":"2014-06-11T13:38:40.000Z"},
{"guid":"5f226cb54df2","title":"Vence, source d'inspiration pour Matisse","latlng":"43.727498, 7.112831","youtubeId":"qL4n-SGRDLs","publishedAt":"2014-06-10T13:11:57.000Z"},
{"guid":"c7e45169e81c","title":"Vence, un condensé de Provence","latlng":"43.723000, 7.112028","youtubeId":"RF-ek_FdQ2A","publishedAt":"2014-06-10T11:25:18.000Z"},
{"guid":"7a6da8b103bc","title":"John Steele, le parachutiste suspendu de Sainte Mère Église","latlng":"49.408808, -1.316386","youtubeId":"AYT71UOpnvk","publishedAt":"2014-06-05T13:22:35.000Z"},
{"guid":"31318a15208e","title":"Les marais du Cotentin, un écrin de verdure exceptionnel","latlng":"49.321648, -1.265691","youtubeId":"nPfplMabDnQ","publishedAt":"2014-06-04T13:37:26.000Z"},
{"guid":"f7017162c810","title":"Valognes, le \"Versailles Normand\"","latlng":"49.509412, -1.471998","youtubeId":"GfGMaKqfa4Y","publishedAt":"2014-06-03T13:56:35.000Z"},
{"guid":"76119858a64b","title":"Sainte-Mère-Église, un village normand entré dans l'histoire","latlng":"49.408808, -1.316386","youtubeId":"mQcOEcc_B7E","publishedAt":"2014-06-02T14:06:41.000Z"},
{"guid":"20238eca9fa3","title":"À Mimizan, l'évasion est partout","latlng":"44.202508, -1.229456","youtubeId":"0XJoBTTSOZQ","publishedAt":"2014-05-30T13:55:34.000Z"},
{"guid":"51528927af21","title":"À Seignosse, deux étangs entre noir et blanc","latlng":"43.689687, -1.373922","youtubeId":"kep-INqa4MU","publishedAt":"2014-05-30T11:17:13.000Z"},
{"guid":"6be9444c3e58","title":"Le courant d'Huchet, la petite Amazonie Landaise","latlng":"43.892517, -1.338870","youtubeId":"j6WqWqub4nQ","publishedAt":"2014-05-28T10:52:20.000Z"},
{"guid":"ec9ad7523253","title":"À Capbreton, les abysses sont un trésor","latlng":"43.647506, -1.445465","youtubeId":"lM34tlvClo8","publishedAt":"2014-05-27T15:30:46.000Z"},
{"guid":"8ce7c31a17ef","title":"Seignosse, un bijou au coeur des Landes","latlng":"43.691018, -1.413179","youtubeId":"UJp-SoUSAqM","publishedAt":"2014-05-26T13:22:11.000Z"},
{"guid":"d85ff9678fc8","title":"Le manoir d'Ango, la renaissance italienne en pays Normand","latlng":"49.900726, 0.994890","youtubeId":"bulhg0GfXVY","publishedAt":"2014-05-22T11:54:05.000Z"},
{"guid":"bc8dba240757","title":"Sissi, une impératrice en pays de Caux","latlng":"49.804844, 0.529657","youtubeId":"ZV0xOXw43iU","publishedAt":"2014-05-21T17:04:07.000Z"},
{"guid":"24984b55a697","title":"Veules les Roses, un vert au paradis de Caux","latlng":"49.871930, 0.799370","youtubeId":"SHQyvgTwo-4","publishedAt":"2014-05-21T13:48:32.000Z"},
{"guid":"f39b3c6e4e49","title":"Veulettes sur Mer, un havre de paix pour tous","latlng":"49.845098, 0.587092","youtubeId":"zXqbOJUwQdg","publishedAt":"2014-05-20T13:42:42.000Z"},
{"guid":"a9fe94ad5f1a","title":"Saint-Valéry-en-Caux, perle de la côte d'Albâtre","latlng":"49.862672, 0.713375","youtubeId":"8VlhltWhx6A","publishedAt":"2014-05-19T15:28:04.000Z"},
{"guid":"2213f0544577","title":"Les Moutiers en Retz, la campagne à la mer","latlng":"47.063563, -2.000775","youtubeId":"vVdSykZiaUo","publishedAt":"2014-05-15T13:01:04.000Z"},
{"guid":"a540949cb07e","title":"La côte de Jade, un sentier de randonnée idéal","latlng":"47.110352, -2.111472","youtubeId":"kf8G3DAWRd4","publishedAt":"2014-05-15T10:20:34.000Z"},